stop_lat,stop_code,stop_lon,stop_id,stop_url,parent_station,stop_desc,stop_name,location_type,zone_id
40.1045998318,,-88.3093579182,CBLFLDCRL,http://www.cumtd.com/maps-and-schedules/bus-stops/info/cblfldcrl,,,Cobblefield and Crail,1,
40.116320835,,-88.2024175,UNIMPL,http://www.cumtd.com/maps-and-schedules/bus-stops/info/unimpl,,,University and Maple,1,
40.14212333,,-88.162845,APTHICRS:2,http://www.cumtd.com/maps-and-schedules/bus-stops/info/apthicrs,APTHICRS,,Airport & High Cross (SE Corner),0,
40.142168,,-88.163036,APTHICRS:3,http://www.cumtd.com/maps-and-schedules/bus-stops/info/apthicrs,APTHICRS,,Airport & High Cross (SW Corner),0,
40.08715,,-88.28158167,WNCHBRCH:4,http://www.cumtd.com/maps-and-schedules/bus-stops/info/wnchbrch,WNCHBRCH,,Winchester & Branch (NW Corner),0,
40.08691333,,-88.281405,WNCHBRCH:2,http://www.cumtd.com/maps-and-schedules/bus-stops/info/wnchbrch,WNCHBRCH,,Winchester & Branch (SE Corner),0,
40.09015167,,-88.32162333,MLKNDVRBRK:2,http://www.cumtd.com/maps-and-schedules/bus-stops/info/mlkndvrbrk,MLKNDVRBRK,,Mullikin & Doverbrook (SE Corner),0,
40.106878075,,-88.2288484915,WRTCHAL,http://www.cumtd.com/maps-and-schedules/bus-stops/info/wrtchal,,,Wright and Chalmers,1,
40.087787,,-88.197007,MHRYLYNE:3,http://www.cumtd.com/maps-and-schedules/bus-stops/info/mhrylyne,MHRYLYNE,,McHenry & Lynn - East (SW Corner),0,
40.122007,,-88.202726,KERGRLDNE:1,,KERGRLDNE,,Kerr & Geraldine (NE Corner),0,
40.127326,,-88.228448665,BRADCRVR,http://www.cumtd.com/maps-and-schedules/bus-stops/info/bradcrvr,,,Bradley and Carver,1,
40.113111355,,-88.2953567833,SPFLDDNCN,http://www.cumtd.com/maps-and-schedules/bus-stops/info/spflddncn,,,Springfield and Duncan,1,
40.1017601675,,-88.18137025,MIKNCH,http://www.cumtd.com/maps-and-schedules/bus-stops/info/miknch,,,Michigan and Kinch,1,
40.135272,,-88.18794,HNKLBRTY:3,,HNKLBRTY,,Hancock & Liberty (SW Corner),0,
40.108943335,,-88.270113335,JOHNDRPR,http://www.cumtd.com/maps-and-schedules/bus-stops/info/johndrpr,,,John and Draper,1,
40.142105,,-88.170981,ARPRTDNLD,,,,Airport and Donald,1,
40.116223,,-88.196508,EASTPO:3,,EASTPO,,East Pull Out,0,
40.1041635,,-88.228653165,GRGLIB,http://www.cumtd.com/maps-and-schedules/bus-stops/info/grglib,,,Gregory at Library,1,
40.10604333,,-88.17617,DDSNWASH:5,http://www.cumtd.com/maps-and-schedules/bus-stops/info/ddsnwash,DDSNWASH,,Dodson & Washington (NE Far Side),0,
40.12198333,,-88.201455,KERCNHM:6,http://www.cumtd.com/maps-and-schedules/bus-stops/info/kercnhm,KERCNHM,,Kerr & Cunningham (SE Far Side),0,
40.10167,,-88.28987833,WSFLDCRLTN:4,http://www.cumtd.com/maps-and-schedules/bus-stops/info/wsfldcrltn,WSFLDCRLTN,,Westfield & Carrelton (NW Corner),0,
40.139914,,-88.181422,SKYLNNWPRT:3,,SKYLNNWPRT,,Skyline & Newport (SW Corner),0,
40.138312,,-88.200779,WLLWBESN:2,,WLLWBESN,,Willow & Beason (East Side),0,
40.13436,,-88.177215,BNFLDML:2,http://www.cumtd.com/maps-and-schedules/bus-stops/info/bnfldml,BNFLDML,,Brownfield & Mary Lou (SE Corner),0,
40.12216833,,-88.20198,KERCNHM:4,http://www.cumtd.com/maps-and-schedules/bus-stops/info/kercnhm,KERCNHM,,Kerr & Cunningham (NW Corner),0,
40.0874404907,,-88.3205986023,MLKNRMGNTN,http://www.cumtd.com/maps-and-schedules/bus-stops/info/mlknrmgntn,,,Mullikin and Remington Way,1,
40.1104817925,,-88.2239486411,GRNGWN,http://www.cumtd.com/maps-and-schedules/bus-stops/info/grngwn,,,Green and Goodwin,1,
40.116305,,-88.22919667,UNIWRT:3,http://www.cumtd.com/maps-and-schedules/bus-stops/info/uniwrt,UNIWRT,,University & Wright (SW Corner),0,
40.11618667,,-88.22891333,UNIWRT:2,http://www.cumtd.com/maps-and-schedules/bus-stops/info/uniwrt,UNIWRT,,University & Wright (SE Corner),0,
40.09441167,,-88.24165333,SMROAK:3,http://www.cumtd.com/maps-and-schedules/bus-stops/info/smroak,SMROAK,,St. Mary's & Oak (SW Corner),0,
40.09432,,-88.24141,SMROAK:2,http://www.cumtd.com/maps-and-schedules/bus-stops/info/smroak,SMROAK,,St. Mary's & Oak (SE Corner),0,
40.09451833,,-88.241235,SMROAK:1,http://www.cumtd.com/maps-and-schedules/bus-stops/info/smroak,SMROAK,,St. Mary's & Oak (NE Corner),0,
40.112981665,,-88.2922625,GC,http://www.cumtd.com/maps-and-schedules/bus-stops/info/gc,,,Ginger Creek Apts.,1,
40.09455833,,-88.24146833,SMROAK:4,http://www.cumtd.com/maps-and-schedules/bus-stops/info/smroak,SMROAK,,St. Mary's & Oak (NW Corner),0,
40.132571835,,-88.2388795,MKTTLP,http://www.cumtd.com/maps-and-schedules/bus-stops/info/mkttlp,,,Market and Tulip Tree,1,
40.1221193333,,-88.19467778,CROLKER,http://www.cumtd.com/maps-and-schedules/bus-stops/info/crolker,,,Carroll and Kerr,1,
40.1418666667,,-88.2481641667,TCBNEIL,http://www.cumtd.com/maps-and-schedules/bus-stops/info/tcbneil,,,Town Center Blvd and Neil,1,
40.112232,,-88.295511,DNCNRDGWD,http://www.cumtd.com/maps-and-schedules/bus-stops/info/dncnrdgwd,,,Duncan and Ridgewood,1,
40.12744833,,-88.18908,PKNSIVAN:3,http://www.cumtd.com/maps-and-schedules/bus-stops/info/pknsivan,PKNSIVAN,,Perkins & Ivanhoe (South Side),0,
40.0961295,,-88.1728515,STNCRKBN,,,,Stone Creek and Bohn,1,
40.09376167,,-88.19867167,ADRSNHRDG:2,http://www.cumtd.com/maps-and-schedules/bus-stops/info/adrsnhrdg,ADRSNHRDG,,Anderson & Harding (SE Corner),0,
40.09274,,-88.2582,PSPCTBDMR:8,http://www.cumtd.com/maps-and-schedules/bus-stops/info/pspctbdmr,PSPCTBDMR,,Prospect & Broadmoor (NW Far Side),0,
40.084182,,-88.313877,WNDSRSTLY:1,http://www.cumtd.com/maps-and-schedules/bus-stops/info/wndsrstly,WNDSRSTLY,,Windsor & Staley (NE Corner),0,
40.096495,,-88.199303335,ADRSNBKWD,http://www.cumtd.com/maps-and-schedules/bus-stops/info/adrsnbkwd,,,Anderson and Burkwood,1,
40.092835,,-88.25767833,PSPCTBDMR:4,http://www.cumtd.com/maps-and-schedules/bus-stops/info/pspctbdmr,PSPCTBDMR,,Prospect & Broadmoor (NW Corner),0,
40.12750667,,-88.18913167,PKNSIVAN:1,http://www.cumtd.com/maps-and-schedules/bus-stops/info/pknsivan,PKNSIVAN,,Perkins & Ivanhoe (North Side),0,
40.09265167,,-88.25775333,PSPCTBDMR:3,http://www.cumtd.com/maps-and-schedules/bus-stops/info/pspctbdmr,PSPCTBDMR,,Prospect & Broadmoor (SW Corner),0,
40.074365,,-88.203415,SWNDSWNC2,http://www.cumtd.com/maps-and-schedules/bus-stops/info/swndswnc2,,,Sherwin and Sherwin Cir 2,1,
40.11828833,,-88.22876167,WRTCHCH:2,http://www.cumtd.com/maps-and-schedules/bus-stops/info/wrtchch,WRTCHCH,,Wright & Church (SE Corner),0,
40.118434906,,-88.2288208008,WRTCHCH:4,http://www.cumtd.com/maps-and-schedules/bus-stops/info/wrtchch,WRTCHCH,,Wright & Church (NW Corner),0,
40.093048335,,-88.20482917,VINMFRD,http://www.cumtd.com/maps-and-schedules/bus-stops/info/vinmfrd,,,Vine and Mumford,1,
40.1059004175,,-88.1735479175,WASHSCWD,http://www.cumtd.com/maps-and-schedules/bus-stops/info/washscwd,,,Washington and Scottswood,1,
40.12508167,,-88.23207667,5THERKA:2,http://www.cumtd.com/maps-and-schedules/bus-stops/info/5therka,5THERKA,,Fifth & Eureka (SE Corner),0,
40.129456835,,-88.298534665,VLRALPN,http://www.cumtd.com/maps-and-schedules/bus-stops/info/vlralpn,,,Valerie and Alpine,1,
40.12733,,-88.26518667,BRADJAS:1,http://www.cumtd.com/maps-and-schedules/bus-stops/info/bradjas,BRADJAS,,Bradley & James (NE Corner),0,
40.077824,,-88.267437,SSXWTRFD:3,http://www.cumtd.com/maps-and-schedules/bus-stops/info/ssxwtrfd,SSXWTRFD,,Sussex & Waterford (SW Corner),0,
40.12721833,,-88.2654,BRADJAS:3,http://www.cumtd.com/maps-and-schedules/bus-stops/info/bradjas,BRADJAS,,Bradley & James (SW Corner),0,
40.098305,,-88.19098,FLPHILO:3,http://www.cumtd.com/maps-and-schedules/bus-stops/info/flphilo,FLPHILO,,Florida & Philo (SW Corner),0,
40.09819833,,-88.190625,FLPHILO:2,http://www.cumtd.com/maps-and-schedules/bus-stops/info/flphilo,FLPHILO,,Florida & Philo (SE Corner),0,
40.09843833,,-88.190355,FLPHILO:1,http://www.cumtd.com/maps-and-schedules/bus-stops/info/flphilo,FLPHILO,,Florida & Philo (NE Corner),0,
40.1118745825,,-88.207525,LSE,http://www.cumtd.com/maps-and-schedules/bus-stops/info/lse,,,Lincoln Square,1,
40.104845,,-88.24502167,RNDLFSTNAG:2,http://www.cumtd.com/maps-and-schedules/bus-stops/info/rndlfstnag,RNDLFSTNAG,,Randolph & Stanage (SE Corner),0,
40.11088833,,-88.20507167,VINGRN:4,http://www.cumtd.com/maps-and-schedules/bus-stops/info/vingrn,VINGRN,,Vine & Green (NW Corner),0,
40.110747,,-88.204477,VINGRN:6,http://www.cumtd.com/maps-and-schedules/bus-stops/info/vingrn,VINGRN,,Vine & Green (SE Far Side),0,
40.14255,,-88.25565,TCBTGT:3,http://www.cumtd.com/maps-and-schedules/bus-stops/info/tcbtgt,TCBTGT,,Town Center at Target (SW Corner),0,
40.11066,,-88.204855,VINGRN:2,http://www.cumtd.com/maps-and-schedules/bus-stops/info/vingrn,VINGRN,,Vine & Green (SE Corner),0,
40.14271833,,-88.25529333,TCBTGT:1,http://www.cumtd.com/maps-and-schedules/bus-stops/info/tcbtgt,TCBTGT,,Town Center at Target (NE Corner),0,
40.09821167,,-88.18592333,FLTOMPAINE:1,http://www.cumtd.com/maps-and-schedules/bus-stops/info/flsunapts,FLTOMPAINE,,Florida at Thomas Paine (South Side),0,
40.10572833,,-88.18555833,WASHCSQR:1,http://www.cumtd.com/maps-and-schedules/bus-stops/info/washcsqr,WASHCSQR,,Washington & Country Squire (North Side),0,
40.096775,,-88.318065,CTSMDWBRTN:3,http://www.cumtd.com/maps-and-schedules/bus-stops/info/ctsmdwbrtn,CTSMDWBRTN,,Curtis Meadow & Brighton (SW Corner),0,
40.096728,,-88.317859,CTSMDWBRTN:1,http://www.cumtd.com/maps-and-schedules/bus-stops/info/ctsmdwbrtn,CTSMDWBRTN,,Curtis Meadow & Brighton (North Side),0,
40.11258833,,-88.25594333,SPFLDPINE:3,http://www.cumtd.com/maps-and-schedules/bus-stops/info/spfldpine,SPFLDPINE,,Springfield & Pine (SW Corner),0,
40.126392335,,-88.2448515,RNDLFBRD,http://www.cumtd.com/maps-and-schedules/bus-stops/info/rndlfbrd,,,Randolph and Beardsley,1,
40.127225,,-88.23994917,BRADCMI,http://www.cumtd.com/maps-and-schedules/bus-stops/info/bradcmi,,,Bradley and Champaign St.,1,
40.149091,,-88.260882,INTERSTWW:1,,INTERSTWW,,Interstate & Waterview Way (NE),0,
40.091286,,-88.295275,DNCNSTNBK:4,http://www.cumtd.com/maps-and-schedules/bus-stops/info/dncnstnbk,DNCNSTNBK,,Duncan & Stoneybrook (NW Corner),0,
40.091131,,-88.295407,DNCNSTNBK:3,http://www.cumtd.com/maps-and-schedules/bus-stops/info/dncnstnbk,DNCNSTNBK,,Duncan & Stoneybrook (SW Corner),0,
40.096819165,,-88.2534925,CRNDOVTRA,http://www.cumtd.com/maps-and-schedules/bus-stops/info/crndovtra,,,Coronado and Ventura,1,
40.09119167,,-88.29561,DNCNSTNBK:8,http://www.cumtd.com/maps-and-schedules/bus-stops/info/dncnstnbk,DNCNSTNBK,,Duncan & Stoneybrook (NW Far Side),0,
40.11949833,,-88.27680167,MATSGLNPK:2,http://www.cumtd.com/maps-and-schedules/bus-stops/info/matsglnpk,MATSGLNPK,,Mattis & Glenn Park (SE Corner),0,
40.128355,,-88.24353167,NEILGAR:2,http://www.cumtd.com/maps-and-schedules/bus-stops/info/neilgar,NEILGAR,,Neil & Garwood (SE Corner),0,
40.12848,,-88.24365833,NEILGAR:4,http://www.cumtd.com/maps-and-schedules/bus-stops/info/neilgar,NEILGAR,,Neil & Garwood (NW Corner),0,
40.138951,,-88.191203,VNCENPLTN:8,,VNCENPLTN,,Vance & Napleton (NW Far Side),0,
40.11241,,-88.170626,MNBRDY:3,http://www.cumtd.com/maps-and-schedules/bus-stops/info/mnbrdy,MNBRDY,,Main & Brady (SW Corner),0,
40.139299,,-88.190689,VNCENPLTN:4,,VNCENPLTN,,Vance & Napleton (NW Corner),0,
40.10073167,,-88.23023333,PA6TH:4,http://www.cumtd.com/maps-and-schedules/bus-stops/info/pa6th,PA6TH,,Pennsylvania & Sixth (NW Corner),0,
40.10572833,,-88.18654833,WASHLNR:1,http://www.cumtd.com/maps-and-schedules/bus-stops/info/washlnr,WASHLNR,,Washington & Lanore (North Side),0,
40.10560833,,-88.18681667,WASHLNR:3,http://www.cumtd.com/maps-and-schedules/bus-stops/info/washlnr,WASHLNR,,Washington & Lanore (SW Corner),0,
40.10246111,,-88.2438561133,NEILSTDM,http://www.cumtd.com/maps-and-schedules/bus-stops/info/neilstdm,,,Neil and Stadium,1,
40.1488042233,,-88.2691853333,INTFRBR,http://www.cumtd.com/maps-and-schedules/bus-stops/info/intfrbr,,,Interstate and Farber,1,
40.13235667,,-88.21785833,LNVWKLRNY,http://www.cumtd.com/maps-and-schedules/bus-stops/info/lnvwklrny,,,Linview and Killarney,1,
40.09852667,,-88.29461833,KBYDNCN:1,http://www.cumtd.com/maps-and-schedules/bus-stops/info/kbydncn,KBYDNCN,,Kirby & Duncan (NE Corner),0,
40.14878122,,-88.2749843333,INTRSRCH,http://www.cumtd.com/maps-and-schedules/bus-stops/info/intrsrch,,,Interstate and Research,1,
40.149159,,-88.255556,INTWALMART:1,,INTWALMART,,Interstate Dr. at Walmart,0,
40.098364,,-88.294581,KBYDNCN:6,http://www.cumtd.com/maps-and-schedules/bus-stops/info/kbydncn,KBYDNCN,,Kirby & Duncan (SE Far Side),0,
40.125623335,,-88.200313335,CNHMTPSN,http://www.cumtd.com/maps-and-schedules/bus-stops/info/cnhmtpsn,,,Cunningham and Thompson,1,
40.1336525,,-88.27016,PLAMELNE,http://www.cumtd.com/maps-and-schedules/bus-stops/info/plamelne,,,Paula and Melanie,1,
40.10058667,,-88.23000833,PA6TH:1,http://www.cumtd.com/maps-and-schedules/bus-stops/info/pa6th,PA6TH,,Pennsylvania & Sixth (NE Corner),0,
40.127395,,-88.258095,BRADPSPCT:4,http://www.cumtd.com/maps-and-schedules/bus-stops/info/bradpspct,BRADPSPCT,,Bradley & Prospect (NW Corner),0,
40.08619333,,-88.24943833,FOXKLWD:2,http://www.cumtd.com/maps-and-schedules/bus-stops/info/foxklwd,FOXKLWD,,Fox & Knollwood (SE Corner),0,
40.08648167,,-88.24948167,FOXKLWD:4,http://www.cumtd.com/maps-and-schedules/bus-stops/info/foxklwd,FOXKLWD,,Fox & Knollwood (NW Corner),0,
40.12724333,,-88.25771167,BRADPSPCT:1,http://www.cumtd.com/maps-and-schedules/bus-stops/info/bradpspct,BRADPSPCT,,Bradley & Prospect (NE Corner),0,
40.12698667,,-88.25787167,BRADPSPCT:2,http://www.cumtd.com/maps-and-schedules/bus-stops/info/bradpspct,BRADPSPCT,,Bradley & Prospect (SE Corner),0,
40.127095,,-88.25826167,BRADPSPCT:3,http://www.cumtd.com/maps-and-schedules/bus-stops/info/bradpspct,BRADPSPCT,,Bradley & Prospect (SW Corner),0,
40.11258833,,-88.25594333,SPFLDPINE,http://www.cumtd.com/maps-and-schedules/bus-stops/info/spfldpine,,,Springfield and Pine,1,
40.08784,,-88.19679167,MHRYLYN1,http://www.cumtd.com/maps-and-schedules/bus-stops/info/mhrylyn1,,,McHenry and Lynn St. #1,1,
40.1352,,-88.239225,ANTHMKT:3,,ANTHMKT,,Anthony and Market (SW),0,
40.1353,,-88.2395,ANTHMKT:8,,ANTHMKT,,Anthony and Market (NW Far Side),0,
40.07443167,,-88.251435,LNHSTBRWS:4,http://www.cumtd.com/maps-and-schedules/bus-stops/info/lnhstbrws,LNHSTBRWS,,Lyndhurst & Burwash (NW Corner),0,
40.068917,,-88.245784,CTSWIN:1,http://www.cumtd.com/maps-and-schedules/bus-stops/info/ctswin,CTSWIN,,Curtis Rd. at Winfield Village,0,
40.087787,,-88.197007,MHRYLYNE,http://www.cumtd.com/maps-and-schedules/bus-stops/info/mhrylyne,,,McHenry & Lynn - East,1,
40.1193111111,,-88.2468972222,STEHIL:4,http://www.cumtd.com/maps-and-schedules/bus-stops/info/stehil,STEHIL,,State & Hill (NW Corner),0,
40.07437167,,-88.25121167,LNHSTBRWS:1,http://www.cumtd.com/maps-and-schedules/bus-stops/info/lnhstbrws,LNHSTBRWS,,Lyndhurst & Burwash (NE Corner),0,
40.125425,,-88.245175,RNDLFERKA:2,http://www.cumtd.com/maps-and-schedules/bus-stops/info/rndlferka,RNDLFERKA,,Randolph & Eureka (East Side),0,
40.14261833,,-88.26990333,CMBLCMCHE:2,http://www.cumtd.com/maps-and-schedules/bus-stops/info/cmblcmche,CMBLCMCHE,,Campbell & Comanche (SE Corner),0,
40.1271397767,,-88.24325049,BRADNEIL,http://www.cumtd.com/maps-and-schedules/bus-stops/info/bradneil,,,Bradley and Neil,1,
40.1173629761,,-88.2272491455,PKRMN:3,http://www.cumtd.com/maps-and-schedules/bus-stops/info/pkrmn,PKRMN,,Park & Romine (SW Corner),0,
40.11741,,-88.227015,PKRMN:1,http://www.cumtd.com/maps-and-schedules/bus-stops/info/pkrmn,PKRMN,,Park & Romine (North Side),0,
40.10615167,,-88.29855333,WLMBRNTWD,http://www.cumtd.com/maps-and-schedules/bus-stops/info/wlmbrntwd,,,William and Brentwood,1,
40.136695,,-88.27708167,MATSANTA:2,http://www.cumtd.com/maps-and-schedules/bus-stops/info/matsanta,MATSANTA,,Mattis & Anita (SE Corner),0,
40.1107895825,,-88.2047979175,VINGRN,http://www.cumtd.com/maps-and-schedules/bus-stops/info/vingrn,,,Vine and Green,1,
40.0802055556,,-88.3002583333,WNDVRCTRYBND,http://www.cumtd.com/maps-and-schedules/bus-stops/info/wndvrctrybnd,,,Wendover and Country Bend,1,
40.134311,,-88.18579,LBRTYJEF:3,,LBRTYJEF,,Liberty & Jefferson (SW Corner),0,
40.13235667,,-88.21785833,LNVWKLRNY:2,http://www.cumtd.com/maps-and-schedules/bus-stops/info/lnvwklrny,LNVWKLRNY,,Linview & Killarney (SE Corner),0,
40.112855,,-88.27099667,SPFLDRYLCT,http://www.cumtd.com/maps-and-schedules/bus-stops/info/spfldrylct,,,Springfield and Royal Ct.,1,
40.10599589,,-88.2943704433,MPLPKWLM,http://www.cumtd.com/maps-and-schedules/bus-stops/info/mplpkwlm,,,Maplepark and William,1,
40.097605847,,-88.3076643701,BNTBRKCBLFLD,http://www.cumtd.com/maps-and-schedules/bus-stops/info/bntbrkvblfld,,,Bentbrook and Cobblefield,1,
40.087355,,-88.187794,URBMEIJ:1,http://www.cumtd.com/maps-and-schedules/bus-stops/info/urbmeij,URBMEIJ,,Urbana Meijer (South Side),0,
40.087435,,-88.187894,URBMEIJ:2,http://www.cumtd.com/maps-and-schedules/bus-stops/info/urbmeij,URBMEIJ,,Urbana Meijer (North Side),0,
40.124685,,-88.219415,ATRIUM:2,http://www.cumtd.com/maps-and-schedules/bus-stops/info/atrium,ATRIUM,,Lincoln at Atrium Apts (East Side),0,
40.11254167,,-88.24527667,RNDLFSPFLD:3,http://www.cumtd.com/maps-and-schedules/bus-stops/info/rndlfspfld,RNDLFSPFLD,,Randolph & Springfield (SW Corner),0,
40.1275000007,,-88.295639866,BRADDNCN,http://www.cumtd.com/maps-and-schedules/bus-stops/info/braddncn,,,Bradley and Duncan,1,
40.122138335,,-88.19236417,EASTKER,http://www.cumtd.com/maps-and-schedules/bus-stops/info/eastker,,,Eastern and Kerr,1,
40.139795,,-88.244995,NEILCNTR:2,http://www.cumtd.com/maps-and-schedules/bus-stops/info/neilcntr,NEILCNTR,,Neil & Center,0,
40.115347,,-88.242925,WLNTLGN:1,http://www.cumtd.com/maps-and-schedules/bus-stops/info/wlntlgn,WLNTLGN,,Walnut & Logan (NE Corner),0,
40.095655,,-88.28320833,CRSNTSWD:2,http://www.cumtd.com/maps-and-schedules/bus-stops/info/crsntswd,CRSNTSWD,,Crescent & Southwood (SE Corner),0,
40.1152,,-88.243054,WLNTLGN:2,http://www.cumtd.com/maps-and-schedules/bus-stops/info/wlntlgn,WLNTLGN,,Walnut & Logan (SE Corner),0,
40.1129296667,,-88.2787391133,SPFLD,http://www.cumtd.com/maps-and-schedules/bus-stops/info/spfld,,,Springfield and Round Barn,1,
40.08155775,,-88.2949635,DNCNCSTRG,http://www.cumtd.com/maps-and-schedules/bus-stops/info/dncncstrg,,,Duncan and Crestridge,1,
40.1130599976,,-88.1680412292,MN150,http://www.cumtd.com/maps-and-schedules/bus-stops/info/mn150,,,Main and Rt. 150,1,
40.11628333,,-88.26512,UNIJAS:3,http://www.cumtd.com/maps-and-schedules/bus-stops/info/unijas,UNIJAS,,University & James (SW Corner),0,
40.132209,,-88.298322,BNBLRGDMD:2,http://www.cumtd.com/maps-and-schedules/bus-stops/info/bnblrgdmd,BNBLRGDMD,,Bonnie Blair & Gold Medal (SE Corner),0,
40.13235,,-88.29825333,BNBLRGDMD:1,http://www.cumtd.com/maps-and-schedules/bus-stops/info/bnblrgdmd,BNBLRGDMD,,Bonnie Blair & Gold Medal (NE Corner),0,
40.07907,,-88.2574,PSPCTFLRPK:2,http://www.cumtd.com/maps-and-schedules/bus-stops/info/pspctflrpk,PSPCTFLRPK,,Prospect & Floral Park (SE Corner),0,
40.14332333,,-88.277135,ANTMATS:1,http://www.cumtd.com/maps-and-schedules/bus-stops/info/antmats,ANTMATS,,Anthony & Mattis (NE Corner),0,
40.14308667,,-88.27727,ANTMATS:2,http://www.cumtd.com/maps-and-schedules/bus-stops/info/antmats,ANTMATS,,Anthony & Mattis (SE Corner),0,
40.100685,,-88.21200667,PACARL,http://www.cumtd.com/maps-and-schedules/bus-stops/info/pacarl,,,Pennsylvania and Carle,1,
40.1227271084,,-88.2888005886,CLTNHLT,http://www.cumtd.com/maps-and-schedules/bus-stops/info/cltnhlt,,,Clayton and Hilltop,1,
40.11615833,,-88.19734192,DEPOT:1,http://www.cumtd.com/maps-and-schedules/bus-stops/info/depot,DEPOT,,MTD Garage,0,
40.149833,,-88.229556,VKINGS:2,http://www.cumtd.com/maps-and-schedules/bus-stops/info/vkings,VKINGS,,Viking South (North Side),0,
40.13153833,,-88.256275,BLOMHD:1,http://www.cumtd.com/maps-and-schedules/bus-stops/info/blomhd,BLOMHD,,Bloomington & Prospect (Home Depot Side),0,
40.116138,,-88.197396,DEPOT:9,http://www.cumtd.com/maps-and-schedules/bus-stops/info/depot,DEPOT,,MTD Garage,0,
40.118402,,-88.270196,CHCHDRPR:1,http://www.cumtd.com/maps-and-schedules/bus-stops/info/chchdrpr,CHCHDRPR,,Church & Draper (NE Corner),0,
40.094749,,-88.31429,PNCRSTSTLY:4,http://www.cumtd.com/maps-and-schedules/bus-stops/info/pncrststly,PNCRSTSTLY,,Pinecrest & Staley (West Side),0,
40.0945892334,,-88.3142623901,PNCRSTSTLY:2,http://www.cumtd.com/maps-and-schedules/bus-stops/info/pncrststly,PNCRSTSTLY,,Pinecrest & Staley (SE Corner),0,
40.10593167,,-88.21969,NVLNCLN:3,http://www.cumtd.com/maps-and-schedules/bus-stops/info/nvlncln,NVLNCLN,,Nevada & Lincoln (SW Corner),0,
40.11703833,,-88.17263167,DODSLYBK:2,http://www.cumtd.com/maps-and-schedules/bus-stops/info/dodslybk,DODSLYBK,,Dodson East & Slayback (SE Corner),0,
40.10601167,,-88.21961,NVLNCLN:8,http://www.cumtd.com/maps-and-schedules/bus-stops/info/nvlncln,NVLNCLN,,Nevada & Lincoln (NW Far Side),0,
40.1128847614,,-88.2827340471,SPFLDCFD,http://www.cumtd.com/maps-and-schedules/bus-stops/info/spfldcfd,,,Springfield and Country Fair Dr.,1,
40.14197833,,-88.23909167,MKTWLBR:4,http://www.cumtd.com/maps-and-schedules/bus-stops/info/mktwlbr,MKTWLBR,,Market & Wilbur (NW Corner),0,
40.06932667,,-88.28518167,CRTSWNSTN:1,http://www.cumtd.com/maps-and-schedules/bus-stops/info/crtswnstn,CRTSWNSTN,,Curtis & Wynstone (NE Corner),0,
40.109058,,-88.188785,CCSJ:3,http://www.cumtd.com/maps-and-schedules/bus-stops/info/ccsj,CCSJ,,County Satellite Jail (West Side),0,
40.109045,,-88.18871333,CCSJ:2,http://www.cumtd.com/maps-and-schedules/bus-stops/info/ccsj,CCSJ,,County Satellite Jail (East Side),0,
40.09563667,,-88.24049667,E14:1,http://www.cumtd.com/maps-and-schedules/bus-stops/info/e14,E14,,Lot E-14 (South Shelter),0,
40.12754833,,-88.23876833,MKTBRAD:5,http://www.cumtd.com/maps-and-schedules/bus-stops/info/mktbrad,MKTBRAD,,Market & Bradley (NE Far Side),0,
40.09568833,,-88.240565,E14:2,http://www.cumtd.com/maps-and-schedules/bus-stops/info/e14,E14,,Lot E-14 (North Shelter),0,
40.12702,,-88.309089,SMRSGSWTCHGRS:2,http://www.cumtd.com/maps-and-schedules/bus-stops/info/smrsgswtchgrs,SMRSGSWTCHGRS,,Summersage & Switchgrass (SE Corner),0,
40.09850667,,-88.19558167,FLCTGRV:4,http://www.cumtd.com/maps-and-schedules/bus-stops/info/flctgrv,FLCTGRV,,Florida & Cottage Grove (NW Corner),0,
40.08498,,-88.20943333,RACEUA,http://www.cumtd.com/maps-and-schedules/bus-stops/info/raceua,,,Race at Stone Creek Church,1,
40.09842,,-88.19532,FLCTGRV:1,http://www.cumtd.com/maps-and-schedules/bus-stops/info/flctgrv,FLCTGRV,,Florida & Cottage Grove (NE Corner),0,
40.12251174,,-88.2911636448,CLTNCPT,http://www.cumtd.com/maps-and-schedules/bus-stops/info/cltncpt,,,Clayton and Compton,1,
40.098319,,-88.1958,FLCTGRV:3,http://www.cumtd.com/maps-and-schedules/bus-stops/info/flctgrv,FLCTGRV,,Florida & Cottage Grove (SW Corner),0,
40.143885,,-88.27351833,RLNDAZTEC:4,http://www.cumtd.com/maps-and-schedules/bus-stops/info/rlndaztec,RLNDAZTEC,,Roland & Aztec (NW Corner),0,
40.11634,,-88.1973675,UNIHKRY,http://www.cumtd.com/maps-and-schedules/bus-stops/info/unihkry,,,University and Hickory,1,
40.10336167,,-88.24501333,RNDLFAVNDL:2,http://www.cumtd.com/maps-and-schedules/bus-stops/info/rndlfavndl,RNDLFAVNDL,,Randolph & Avondale (SE),0,
40.1136105,,-88.311003,SPFLDFLDSTN,,,,Springfield and Fieldstone,1,
40.126415,,-88.25806333,PSPCTBRD:4,http://www.cumtd.com/maps-and-schedules/bus-stops/info/pspctbrd,PSPCTBRD,,Prospect & Beardsley (NW Corner),0,
40.09475,,-88.19691167,COLRCH,http://www.cumtd.com/maps-and-schedules/bus-stops/info/colrch,,,Colorado and Larch,1,
40.08370167,,-88.262305,WDSRGLN:1,http://www.cumtd.com/maps-and-schedules/bus-stops/info/glnwdsr,WDSRGLN,,Windsor & Galen (NE Corner),0,
40.1116597222,,-88.2434847206,NEILHLY,http://www.cumtd.com/maps-and-schedules/bus-stops/info/neilhly,,,Neil and Healey,1,
40.083538,,-88.262784,WDSRGLN:3,http://www.cumtd.com/maps-and-schedules/bus-stops/info/glnwdsr,WDSRGLN,,Windsor & Galen (SW Corner),0,
40.08378333,,-88.26257,WDSRGLN:4,http://www.cumtd.com/maps-and-schedules/bus-stops/info/glnwdsr,WDSRGLN,,Windsor & Galen (NW Corner),0,
40.084177,,-88.262475,WDSRGLN:5,http://www.cumtd.com/maps-and-schedules/bus-stops/info/glnwdsr,WDSRGLN,,Windsor & Galen (NE Far Side),0,
40.12621667,,-88.300485,CRSTWDFLNC:4,http://www.cumtd.com/maps-and-schedules/bus-stops/info/crstwdflnc,CRSTWDFLNC,,Crestwood & Florence (NW Corner),0,
40.106055,,-88.28964667,WSFLDWLM:1,http://www.cumtd.com/maps-and-schedules/bus-stops/info/wsfldwlm,WSFLDWLM,,Westfield & William (NE Corner),0,
40.099907835,,-88.289931665,WSFLDLWNDL,http://www.cumtd.com/maps-and-schedules/bus-stops/info/wsfldlwndl,,,Westfield and Lawndale,1,
40.087085,,-88.238135,1STGTY:2,http://www.cumtd.com/maps-and-schedules/bus-stops/info/1stgty,1STGTY,,First & Gerty (SE Corner),0,
40.097661335,,-88.320986665,MLKNTRSTSHR,http://www.cumtd.com/maps-and-schedules/bus-stops/info/mlkntrstshr,,,Mullikin and Trostshire,1,
40.09082,,-88.27316833,DVNLSDED:3,http://www.cumtd.com/maps-and-schedules/bus-stops/info/dvnlsded,DVNLSDED,,Devonshire & Lakeside (SW Corner),0,
40.08737833,,-88.23826333,1STGTY:4,http://www.cumtd.com/maps-and-schedules/bus-stops/info/1stgty,1STGTY,,First & Gerty (NW Corner),0,
40.12845167,,-88.25808333,PSPCTDNSN:4,http://www.cumtd.com/maps-and-schedules/bus-stops/info/pspctdnsn,PSPCTDNSN,,Prospect & Dennison (NW Corner),0,
40.11448,,-88.24687833,STEWHT:4,http://www.cumtd.com/maps-and-schedules/bus-stops/info/stewht,STEWHT,,State & White (NW Corner),0,
40.12823333,,-88.25788,PSPCTDNSN:2,http://www.cumtd.com/maps-and-schedules/bus-stops/info/pspctdnsn,PSPCTDNSN,,Prospect & Dennison (SE Corner),0,
40.11999167,,-88.23553167,WASH3RD,http://www.cumtd.com/maps-and-schedules/bus-stops/info/wash3rd,,,Washington and Third,1,
40.09143167,,-88.263495,GLNTDR:4,http://www.cumtd.com/maps-and-schedules/bus-stops/info/glntdr,GLNTDR,,Galen & Theodore (NW Corner),0,
40.09127333,,-88.2634,GLNTDR:2,http://www.cumtd.com/maps-and-schedules/bus-stops/info/glntdr,GLNTDR,,Galen & Theodore (SE Corner),0,
40.118382,,-88.276564,CHCHMATS,http://www.cumtd.com/maps-and-schedules/bus-stops/info/chchmats,,,Church and Mattis,1,
40.0909118652,,-88.321635,MLKNCRSGT:2,http://www.cumtd.com/maps-and-schedules/bus-stops/info/mlkncrsgt,MLKNCRSGT,,Mullikin & Crossgate (SE Corner),0,
40.0910797119,,-88.3216781616,MLKNCRSGT:1,http://www.cumtd.com/maps-and-schedules/bus-stops/info/mlkncrsgt,MLKNCRSGT,,Mullikin & Crossgate (NE Corner),0,
40.0806884766,,-88.2558860779,PKLNSTFD,http://www.cumtd.com/maps-and-schedules/bus-stops/info/pklndtfd,,,Park Lane and Stanford,1,
40.135413335,,-88.176130835,BNFLDSLYN,http://www.cumtd.com/maps-and-schedules/bus-stops/info/bnfldslyn,,,Brownfield and Sharlyn,1,
40.10238917,,-88.191755,FRLNERN,http://www.cumtd.com/maps-and-schedules/bus-stops/info/frlnern,,,Fairlawn and Eastern,1,
40.113306,,-88.30227,SPRINGPLAS:4,http://www.cumtd.com/maps-and-schedules/bus-stops/info/springplas,SPRINGPLAS,,Springfield at  Plastipak (NW Corner),0,
40.1183166667,,-88.2500166667,CHCHELM:1,http://www.cumtd.com/maps-and-schedules/bus-stops/info/chchelm,CHCHELM,,Church & Elm (NE Corner),0,
40.1262725,,-88.232130835,5THBRD,http://www.cumtd.com/maps-and-schedules/bus-stops/info/5thbrd,,,Fifth and Beardsley,1,
40.09887333,,-88.18119167,FLKNCH:1,http://www.cumtd.com/maps-and-schedules/bus-stops/info/flknch,FLKNCH,,Florida & Kinch (NE Corner),0,
40.0989783333,,-88.1814066667,FLKNCH:4,http://www.cumtd.com/maps-and-schedules/bus-stops/info/flknch,FLKNCH,,Florida & Kinch (NW Corner),0,
40.09909667,,-88.181305,FLKNCH:5,http://www.cumtd.com/maps-and-schedules/bus-stops/info/flknch,FLKNCH,,Florida & Kinch (NE Far Side),0,
40.1380854467,,-88.2697962233,ANTCMBL,http://www.cumtd.com/maps-and-schedules/bus-stops/info/antcmbl,,,Anthony and Campbell,1,
40.06742833,,-88.23868833,INDIGO,http://www.cumtd.com/maps-and-schedules/bus-stops/info/indigo,,,The Place at 117,1,
40.1160625567,,-88.19556422,UNICTGRV,http://www.cumtd.com/maps-and-schedules/bus-stops/info/unictgrv,,,University and Cottage Grove,1,
40.0782089233,,-88.2645492554,GLNSSX,http://www.cumtd.com/maps-and-schedules/bus-stops/info/glnssx,,,Galen and Sussex,1,
40.111654,,-88.224066,GDWNCB:1,http://www.cumtd.com/maps-and-schedules/bus-stops/info/gdwncb,GDWNCB,,Goodwin at Ceramics Building,0,
40.096555,,-88.322642,MLKNPATH:2,,MLKNPATH,,Mullikin at Path (East Side),0,
40.11011,,-88.24525667,GRNRNDLF:3,http://www.cumtd.com/maps-and-schedules/bus-stops/info/grnrndlf,GRNRNDLF,,Green & Randolph (SW Corner),0,
40.0692666667,,-88.2888833333,CTSMDW,http://www.cumtd.com/maps-and-schedules/bus-stops/info/ctsmdw,,,Curtis and Meadow,1,
40.11024667,,-88.24495167,GRNRNDLF:1,http://www.cumtd.com/maps-and-schedules/bus-stops/info/grnrndlf,GRNRNDLF,,Green & Randolph (NE Corner),0,
40.105644835,,-88.176839335,WASHSMITH,http://www.cumtd.com/maps-and-schedules/bus-stops/info/washsmith,,,Washington and Smith,1,
40.092464447,,-88.3223495483,BRTTRLMLKN:4,http://www.cumtd.com/maps-and-schedules/bus-stops/info/brttrlmlkn,BRTTRLMLKN,,Brittany Trail & Mullikin (NW Corner),0,
40.0908204175,,-88.2384266675,1STHZLWD,http://www.cumtd.com/maps-and-schedules/bus-stops/info/1sthzlwd,,,First and Hazelwood,1,
40.092540741,,-88.322135,BRTTRLMLKN:1,http://www.cumtd.com/maps-and-schedules/bus-stops/info/brttrlmlkn,BRTTRLMLKN,,Brittany Trail & Mullikin (NE Corner),0,
40.0923614502,,-88.3221054077,BRTTRLMLKN:2,http://www.cumtd.com/maps-and-schedules/bus-stops/info/brttrlmlkn,BRTTRLMLKN,,Brittany Trail & Mullikin (SE Corner),0,
40.0996448904,,-88.3086911865,CBLFLDBDGPT,http://www.cumtd.com/maps-and-schedules/bus-stops/info/cblfldbdgpt,,,Cobblefield and Bridge Point Dr,1,
40.08654333,,-88.24146167,ISWS,http://www.cumtd.com/maps-and-schedules/bus-stops/info/isws,,,Water Survey,1,
40.08534333,,-88.201975,VINSCVL:4,http://www.cumtd.com/maps-and-schedules/bus-stops/info/vinscvl,VINSCVL,,Vine & Scovill (NW Corner),0,
40.106675,,-88.208855,RACENV:4,http://www.cumtd.com/maps-and-schedules/bus-stops/info/racenv,RACENV,,Race & Nevada (NW Corner),0,
40.105611555,,-88.188599,WASHLRMN,http://www.cumtd.com/maps-and-schedules/bus-stops/info/washlrmn,,,Washington and Lierman,1,
40.054415,,-88.2433995,CHCHDNTN,,,,Church and Denton,1,
40.11240667,,-88.23868333,1STSPFLD:2,http://www.cumtd.com/maps-and-schedules/bus-stops/info/1stspfld,1STSPFLD,,First & Springfield (SE Corner),0,
40.11272333,,-88.23878667,1STSPFLD:4,http://www.cumtd.com/maps-and-schedules/bus-stops/info/1stspfld,1STSPFLD,,First & Springfield (NW Corner),0,
40.13335333,,-88.18874167,CLMBAHNK:1,http://www.cumtd.com/maps-and-schedules/bus-stops/info/clmbahnk,CLMBAHNK,,Columbia & Hancock (NE Corner),0,
40.118281,,-88.214563,CHCHORCD:3,http://www.cumtd.com/maps-and-schedules/bus-stops/info/chchorcd,CHCHORCD,,Church & Orchard (SW Corner),0,
40.118343,,-88.214266,CHCHORCD:1,http://www.cumtd.com/maps-and-schedules/bus-stops/info/chchorcd,CHCHORCD,,Church & Orchard (NE Corner),0,
40.0945616667,,-88.2386027783,1STSMR,http://www.cumtd.com/maps-and-schedules/bus-stops/info/1stsmr,,,First and St. Mary's Rd.,1,
40.102857835,,-88.185221165,CSQRCT,http://www.cumtd.com/maps-and-schedules/bus-stops/info/csqrct,,,Country Squire Ct.,1,
40.11982167,,-88.23713833,WASH2ND:7,http://www.cumtd.com/maps-and-schedules/bus-stops/info/wash2nd,WASH2ND,,Washington & Second (SW Far Side),0,
40.125171,,-88.300695,CRSTWDKTLYN:2,http://www.cumtd.com/maps-and-schedules/bus-stops/info/crstwdktlyn,CRSTWDKTLYN,,Crestwood & Katie Lynn (SE Corner),0,
40.12218,,-88.19467667,CROLKER:4,http://www.cumtd.com/maps-and-schedules/bus-stops/info/crolker,CROLKER,,Carroll & Kerr (NW Corner),0,
40.12537167,,-88.30077833,CRSTWDKTLYN:4,http://www.cumtd.com/maps-and-schedules/bus-stops/info/crstwdktlyn,CRSTWDKTLYN,,Crestwood & Katie Lynn (NW Corner),0,
40.122113,,-88.19455,CROLKER:1,http://www.cumtd.com/maps-and-schedules/bus-stops/info/crolker,CROLKER,,Carroll & Kerr (NE Corner),0,
40.097045,,-88.2694295,MYFRLCLNSH,http://www.cumtd.com/maps-and-schedules/bus-stops/info/myfrmclnsh,,,Mayfair and Lincolnshire,1,
40.1040825825,,-88.2386625025,1STGRG,http://www.cumtd.com/maps-and-schedules/bus-stops/info/1stgrg,,,First and Gregory,1,
40.1038166667,,-88.2335,4THGRG:7,http://www.cumtd.com/maps-and-schedules/bus-stops/info/4thgrg,4THGRG,,Fourth & Gregory (SW Far Side),0,
40.095134,,-88.209636,RACEMTCLR:4,http://www.cumtd.com/maps-and-schedules/bus-stops/info/racemtclr,RACEMTCLR,,Race & Montclair (West Side),0,
40.11178167,,-88.24682333,STEHLY,http://www.cumtd.com/maps-and-schedules/bus-stops/info/stehly,,,State and Healey,1,
40.104095,,-88.233226,4THGRG:2,http://www.cumtd.com/maps-and-schedules/bus-stops/info/4thgrg,4THGRG,,Fourth & Gregory (SE Corner),0,
40.103943,,-88.176257,SMRNBVW:2,http://www.cumtd.com/maps-and-schedules/bus-stops/info/smrnbvw,SMRNBVW,,Smith & Rainbowview (SE Corner),0,
40.1276178,,-88.286636734,BRADCLTN,http://www.cumtd.com/maps-and-schedules/bus-stops/info/bradcltn,,,Bradley and Clayton,1,
40.112614066,,-88.219317,SPFLDLNCLN,http://www.cumtd.com/maps-and-schedules/bus-stops/info/spfldlncln,,,Springfield and Lincoln,1,
40.09803667,,-88.24976,KBYVYRD:3,http://www.cumtd.com/maps-and-schedules/bus-stops/info/kbyvyrd,KBYVYRD,,Kirby & Valley Rd. (SW Corner),0,
40.09817667,,-88.24949833,KBYVYRD:1,http://www.cumtd.com/maps-and-schedules/bus-stops/info/kbyvyrd,KBYVYRD,,Kirby & Valley Rd. (NE Corner),0,
40.09267,,-88.258865,BDMRDVD,http://www.cumtd.com/maps-and-schedules/bus-stops/info/bdmrdvd,,,Broadmoor and David,1,
40.131489,,-88.311849,BLDRRDGPPRML:1,,BLDRRDGPPRML,,Boulder Ridge & Peppermill (North Side),0,
40.1429916667,,-88.2461583333,MKTPLCW:4,http://www.cumtd.com/maps-and-schedules/bus-stops/info/mktplcw,MKTPLCW,,Market Place West (West Side),0,
40.11037667,,-88.28143833,CRSNTRBM:1,http://www.cumtd.com/maps-and-schedules/bus-stops/info/crsntrbm,CRSNTRBM,,Round Barn Manor (West Side),0,
40.1431111111,,-88.2460361111,MKTPLCW:2,http://www.cumtd.com/maps-and-schedules/bus-stops/info/mktplcw,MKTPLCW,,Market Place West (East Side),0,
40.0987650227,,-88.3078040721,KBYCBLFLD,http://www.cumtd.com/maps-and-schedules/bus-stops/info/kbycblfld,,,Kirby and Cobblefield,1,
40.11572167,,-88.19245333,AMBUC:1,http://www.cumtd.com/maps-and-schedules/bus-stops/info/ambuc,AMBUC,,Ambucs Park (South Side),0,
40.115905,,-88.192215,AMBUC:2,http://www.cumtd.com/maps-and-schedules/bus-stops/info/ambuc,AMBUC,,Ambucs Park (North Side),0,
40.1301225,,-88.270945,WMBGSMLN,http://www.cumtd.com/maps-and-schedules/bus-stops/info/wmbgsmln,,,Williamsburg and Summerlin,1,
40.09824167,,-88.258175,PSPCTKBY:8,http://www.cumtd.com/maps-and-schedules/bus-stops/info/pspctkby,PSPCTKBY,,Prospect & Kirby (NW Far Side),0,
40.112665,,-88.172716665,MNDWY,http://www.cumtd.com/maps-and-schedules/bus-stops/info/mndwy,,,Main and Dewey,1,
40.098226,,-88.257351,PSPCTKBY:1,http://www.cumtd.com/maps-and-schedules/bus-stops/info/pspctkby,PSPCTKBY,,Prospect & Kirby (NE Corner),0,
40.09807833,,-88.25791667,PSPCTKBY:3,http://www.cumtd.com/maps-and-schedules/bus-stops/info/pspctkby,PSPCTKBY,,Prospect & Kirby (SW Corner),0,
40.09834667,,-88.25774333,PSPCTKBY:4,http://www.cumtd.com/maps-and-schedules/bus-stops/info/pspctkby,PSPCTKBY,,Prospect & Kirby (NW Corner),0,
40.11542833,,-88.24687333,STECLARK:4,http://www.cumtd.com/maps-and-schedules/bus-stops/info/steclark,STECLARK,,State & Clark (NW Corner),0,
40.080657959,,-88.2559585571,PKLNSTFD:3,http://www.cumtd.com/maps-and-schedules/bus-stops/info/pklndtfd,PKLNSTFD,,Park Lane & Stanford (SW Corner),0,
40.12099833,,-88.241175,WLNTCLMBA,http://www.cumtd.com/maps-and-schedules/bus-stops/info/wlntclmba,,,Walnut and Columbia,1,
40.11709,,-88.18391667,GRDBTZ:3,http://www.cumtd.com/maps-and-schedules/bus-stops/info/grdbtz,GRDBTZ,,Guardian Dr. & Butzow (SW Corner),0,
40.09870833,,-88.17611833,FLSMITH:4,http://www.cumtd.com/maps-and-schedules/bus-stops/info/flsmith,FLSMITH,,Florida & Smith (NW Corner),0,
40.09894833,,-88.17603,FLSMITH:5,http://www.cumtd.com/maps-and-schedules/bus-stops/info/flsmith,FLSMITH,,Florida & Smith (NE Far Side),0,
40.12717,,-88.19475667,PKNSCROL:7,http://www.cumtd.com/maps-and-schedules/bus-stops/info/pknscrol,PKNSCROL,,Perkins & Carroll (SW Far Side),0,
40.12747667,,-88.19458667,PKNSCROL:1,http://www.cumtd.com/maps-and-schedules/bus-stops/info/pknscrol,PKNSCROL,,Perkins & Carroll (North Side),0,
40.098435,,-88.176106,FLSMITH:2,http://www.cumtd.com/maps-and-schedules/bus-stops/info/flsmith,FLSMITH,,Florida & Smith (SE Corner),0,
40.10058333,,-88.23316167,PA4TH:1,http://www.cumtd.com/maps-and-schedules/bus-stops/info/pa4th,PA4TH,,Pennsylvania & Fourth (NE Corner),0,
40.152786,,-88.256567,NWTNNBL:1,http://www.cumtd.com/maps-and-schedules/bus-stops/info/nwtnnbl,NWTNNBL,,Newton & Nobel (NE Corner),0,
40.09988667,,-88.19556833,CTGRVPA:2,http://www.cumtd.com/maps-and-schedules/bus-stops/info/ctgrvpa,CTGRVPA,,Cottage Grove & Penn (SE Corner),0,
40.099925,,-88.19575833,CTGRVPA:3,http://www.cumtd.com/maps-and-schedules/bus-stops/info/ctgrvpa,CTGRVPA,,Cottage Grove & Penn (SW Corner),0,
40.12403833,,-88.25320333,HRISHRVRD:4,http://www.cumtd.com/maps-and-schedules/bus-stops/info/hrishrvrd,HRISHRVRD,,Harris & Harvard (NW Corner),0,
40.115403335,,-88.2240325,GWNCLK,http://www.cumtd.com/maps-and-schedules/bus-stops/info/gwnclk,,,Goodwin and Clark,1,
40.141632,,-88.2768555,ANTDOBB,http://www.cumtd.com/maps-and-schedules/bus-stops/info/antdobb,,,Anthony and Dobbins,1,
40.124898335,,-88.24356583,NEILERKA,http://www.cumtd.com/maps-and-schedules/bus-stops/info/neilerka,,,Neil and Eureka,1,
40.09595333,,-88.25771667,PSPCTLNSH:4,http://www.cumtd.com/maps-and-schedules/bus-stops/info/pspctlnsh,PSPCTLNSH,,Prospect & Lincolnshire (NW Corner),0,
40.12394667,,-88.25309167,HRISHRVRD:2,http://www.cumtd.com/maps-and-schedules/bus-stops/info/hrishrvrd,HRISHRVRD,,Harris & Harvard (SE Corner),0,
40.10601044,,-88.2236862183,GWNNV:1,http://www.cumtd.com/maps-and-schedules/bus-stops/info/gwnnv,GWNNV,,Goodwin & Nevada (NE Corner),0,
40.12385167,,-88.26272167,MCNLYHVAD:4,http://www.cumtd.com/maps-and-schedules/bus-stops/info/mcnlyhvad,MCNLYHVAD,,McKinley & Harvard (NW Corner),0,
40.12361667,,-88.26263167,MCNLYHVAD:2,http://www.cumtd.com/maps-and-schedules/bus-stops/info/mcnlyhvad,MCNLYHVAD,,McKinley & Harvard (SE Corner),0,
40.106025,,-88.294278,MPLPKWLM:1,http://www.cumtd.com/maps-and-schedules/bus-stops/info/mplpkwlm,MPLPKWLM,,Maplepark & William (NE Corner),0,
40.139485,,-88.27735333,MATSBLOM:4,http://www.cumtd.com/maps-and-schedules/bus-stops/info/matsblom,MATSBLOM,,Mattis & Bloomington (NW Corner),0,
40.10437167,,-88.223885,GWNGRG:4,http://www.cumtd.com/maps-and-schedules/bus-stops/info/gwngrg,GWNGRG,,Goodwin & Gregory (NW Corner),0,
40.0802055556,,-88.3002583333,WNDVRCTRYBND:4,http://www.cumtd.com/maps-and-schedules/bus-stops/info/wndvrctrybnd,WNDVRCTRYBND,,Wendover & Country Bend (NW Corner),0,
40.104235,,-88.22356167,GWNGRG:1,http://www.cumtd.com/maps-and-schedules/bus-stops/info/gwngrg,GWNGRG,,Goodwin & Gregory (NE Corner),0,
40.104128,,-88.224064,GWNGRG:3,http://www.cumtd.com/maps-and-schedules/bus-stops/info/gwngrg,GWNGRG,,Goodwin & Gregory (South Side),0,
40.10015333,,-88.28140833,CRSNTGRNDL:2,http://www.cumtd.com/maps-and-schedules/bus-stops/info/crsntgrndl,CRSNTGRNDL,,Crescent & Greendale (SE Corner),0,
40.152718835,,-88.256705165,NWTNNBL,http://www.cumtd.com/maps-and-schedules/bus-stops/info/nwtnnbl,,,Newton and Nobel,1,
40.10476333,,-88.22388333,GWNGRG:9,http://www.cumtd.com/maps-and-schedules/bus-stops/info/gwngrg,GWNGRG,,Goodwin & Gregory (West Side),0,
40.098864165,,-88.1793325,FLBRMD,http://www.cumtd.com/maps-and-schedules/bus-stops/info/flbrmd,,,Florida and Bermuda,1,
40.13051333,,-88.30035167,BNBLRVLR,http://www.cumtd.com/maps-and-schedules/bus-stops/info/bnblrvlr,,,Bonnie Blair and Valerie,1,
40.0956625,,-88.240530835,E14,http://www.cumtd.com/maps-and-schedules/bus-stops/info/e14,,,Lot E-14,1,
40.12214333,,-88.258085,PSPCTVIN:3,http://www.cumtd.com/maps-and-schedules/bus-stops/info/pspctvin,PSPCTVIN,,Prospect & Vine (SW Corner),0,
40.09126667,,-88.25748333,PSPCTASRD:2,http://www.cumtd.com/maps-and-schedules/bus-stops/info/pspctasrd,PSPCTASRD,,Prospect & Ayrshire (SE Corner),0,
40.1274775,,-88.189105835,PKNSIVAN,http://www.cumtd.com/maps-and-schedules/bus-stops/info/pknsivan,,,Perkins at Ivanhoe,1,
40.08786333,,-88.19370667,MHRYPND:1,http://www.cumtd.com/maps-and-schedules/bus-stops/info/mhrypnd,MHRYPND,,McHenry & Pond (NE Corner),0,
40.08779167,,-88.193665,MHRYPND:3,http://www.cumtd.com/maps-and-schedules/bus-stops/info/mhrypnd,MHRYPND,,McHenry & Pond (SW Corner),0,
40.091435,,-88.25764167,PSPCTASRD:4,http://www.cumtd.com/maps-and-schedules/bus-stops/info/pspctasrd,PSPCTASRD,,Prospect & Ayrshire (West Side),0,
40.10619667,,-88.302015,WLMGLDVW:1,http://www.cumtd.com/maps-and-schedules/bus-stops/info/wlmgldvw,WLMGLDVW,,William & Goldenview (NE Corner),0,
40.126126835,,-88.3004725,CRSTWDFLNC,http://www.cumtd.com/maps-and-schedules/bus-stops/info/crstwdflnc,,,Crestwood and Florence,1,
40.12219667,,-88.25826167,PSPCTVIN:8,http://www.cumtd.com/maps-and-schedules/bus-stops/info/pspctvin,PSPCTVIN,,Prospect & Vine (NW Far Side),0,
40.09037,,-88.25059167,FOXREMAX:2,http://www.cumtd.com/maps-and-schedules/bus-stops/info/foxremax,FOXREMAX,,Fox at Remax (East Side),0,
40.098585,,-88.19084167,FLPHILO:4,http://www.cumtd.com/maps-and-schedules/bus-stops/info/flphilo,FLPHILO,,Florida & Philo (NW Corner),0,
40.142015,,-88.1813505,ARPRTSKYLN,,,,Airport and Skyline,1,
40.1126104215,,-88.2517468457,SPFLDLYN,http://www.cumtd.com/maps-and-schedules/bus-stops/info/spfldlyn,,,Springfield and Lynn,1,
40.10319833,,-88.1814125,KNCHRAIN,http://www.cumtd.com/maps-and-schedules/bus-stops/info/knchrain,,,Kinch and Rainbow View,1,
40.105465,,-88.232198,5THARY:8,http://www.cumtd.com/maps-and-schedules/bus-stops/info/5thary,5THARY,,Fifth & Armory (NW Far Side),0,
40.129632,,-88.295744,DNCNVLR:4,http://www.cumtd.com/maps-and-schedules/bus-stops/info/dncnvlr,DNCNVLR,,Duncan & Valerie (NW Corner),0,
40.064924,,-88.238364,1STLAKEPKN,,,,First and Lake Park North,1,
40.10080833,,-88.19996833,PAADRSN:1,http://www.cumtd.com/maps-and-schedules/bus-stops/info/paadrsn,PAADRSN,,Penn & Anderson (NE Corner),0,
40.0616925,,-88.238325,1STLAKEPKS,,,,First and Lake Park South,1,
40.100865,,-88.20019,PAADRSN:4,http://www.cumtd.com/maps-and-schedules/bus-stops/info/paadrsn,PAADRSN,,Penn & Anderson (NW Corner),0,
40.1144218445,,-88.23704833,WHT2ND:1,http://www.cumtd.com/maps-and-schedules/bus-stops/info/wht2nd,WHT2ND,,White & Second (NE Corner),0,
40.14235667,,-88.27320167,RLNDCMCHE:2,http://www.cumtd.com/maps-and-schedules/bus-stops/info/rlndcmche,RLNDCMCHE,,Roland & Comanche (SE Corner),0,
40.11421333,,-88.207555,BDWYCM:1,http://www.cumtd.com/maps-and-schedules/bus-stops/info/bdwysal,BDWYCM,,Save A Lot (West Side),0,
40.11447167,,-88.20738667,BDWYCM:2,http://www.cumtd.com/maps-and-schedules/bus-stops/info/bdwysal,BDWYCM,,Save A Lot (East Side),0,
40.14259,,-88.27333333,RLNDCMCHE:4,http://www.cumtd.com/maps-and-schedules/bus-stops/info/rlndcmche,RLNDCMCHE,,Roland & Comanche (NW Corner),0,
40.10778583,,-88.1957575,CTGRVOR,http://www.cumtd.com/maps-and-schedules/bus-stops/info/ctgrvor,,,Cottage Grove and Oregon,1,
40.09632,,-88.19914,ADRSNBKWD:2,http://www.cumtd.com/maps-and-schedules/bus-stops/info/adrsnbkwd,ADRSNBKWD,,Anderson & Burkwood (SE Corner),0,
40.09473,,-88.19859722,ADRSNCO,http://www.cumtd.com/maps-and-schedules/bus-stops/info/ardsnco,,,Anderson and Colorado,1,
40.09091167,,-88.276505,MATSDVN:4,http://www.cumtd.com/maps-and-schedules/bus-stops/info/matsdvn,MATSDVN,,Mattis & Devonshire (NW Corner),0,
40.093168,,-88.168375,STNCRKVNTRI:2,,STNCRKVNTRI,,Stone Creek & Venturi (SE Corner),0,
40.10145667,,-88.2304,6THPDY:3,http://www.cumtd.com/maps-and-schedules/bus-stops/info/6thpdy,6THPDY,,Sixth & Peabody (SW Corner),0,
40.101385,,-88.230142,6THPDY:2,http://www.cumtd.com/maps-and-schedules/bus-stops/info/6thpdy,6THPDY,,Sixth & Peabody (SE Corner),0,
40.10165167,,-88.23029667,6THPDY:4,http://www.cumtd.com/maps-and-schedules/bus-stops/info/6thpdy,6THPDY,,Sixth & Peabody (NW Corner),0,
40.090759,,-88.27631,MATSDVN:2,http://www.cumtd.com/maps-and-schedules/bus-stops/info/matsdvn,MATSDVN,,Mattis & Devonshire (SE Corner),0,
40.093229,,-88.168701,STNCRKVNTRI:4,,STNCRKVNTRI,,Stone Creek & Venturi (NW Corner),0,
40.112292,,-88.21944,SPFLDLNCLN:7,http://www.cumtd.com/maps-and-schedules/bus-stops/info/spfldlncln,SPFLDLNCLN,,Lincoln & Springfield (SW Far Side),0,
40.122175,,-88.25299833,VINHRIS:1,http://www.cumtd.com/maps-and-schedules/bus-stops/info/vinhris,VINHRIS,,Vine & Harris (NE Corner),0,
40.092738,,-88.259768,BDMRLNWD:1,http://www.cumtd.com/maps-and-schedules/bus-stops/info/bdmrlnwd,BDMRLNWD,,Broadmoor & Lynwood (NE Corner),0,
40.12223,,-88.25316,VINHRIS:4,http://www.cumtd.com/maps-and-schedules/bus-stops/info/vinhris,VINHRIS,,Vine & Harris (NW Corner),0,
40.09267167,,-88.26005333,BDMRLNWD:3,http://www.cumtd.com/maps-and-schedules/bus-stops/info/bdmrlnwd,BDMRLNWD,,Broadmoor & Lynwood (SW Corner),0,
40.0999065,,-88.2933585,LWNDLBLPK,http://www.cumtd.com/maps-and-schedules/bus-stops/info/lwndlblpk,,,Lawndale and Bellepark,1,
40.102836,,-88.238709866,1STSTDM,http://www.cumtd.com/maps-and-schedules/bus-stops/info/1ststdm,,,First and Stadium,1,
40.12966833,,-88.25491167,HGNPNR:4,http://www.cumtd.com/maps-and-schedules/bus-stops/info/hgnpnr,HGNPNR,,Hagan & Pioneer (NW Corner),0,
40.140627,,-88.186189,CPTVASNBL:4,,CPTVASNBL,,Captiva & Sanibel (NW Corner),0,
40.12951333,,-88.254845,HGNPNR:2,http://www.cumtd.com/maps-and-schedules/bus-stops/info/hgnpnr,HGNPNR,,Hagan & Pioneer (SE Corner),0,
40.109135,,-88.257824,PSPCTJOHN,,,,Prospect and John,1,
40.09466167,,-88.21905167,LNCLNSMR:4,http://www.cumtd.com/maps-and-schedules/bus-stops/info/lnclnsmr,LNCLNSMR,,Lincoln & St. Mary's (NW Corner),0,
40.09448167,,-88.21895833,LNCLNSMR:2,http://www.cumtd.com/maps-and-schedules/bus-stops/info/lnclnsmr,LNCLNSMR,,Lincoln & St. Marys (SE),0,
40.093096,,-88.3210535,BRTTRLSTHFRDTR,http://www.cumtd.com/maps-and-schedules/bus-stops/info/brttrlsthfrdtr,,,Brittany Trail and Southford Trace West,1,
40.135691,,-88.226865,ANTNWH,,,,Anthony at National Warehouse,1,
40.083741,,-88.188288,WDSRBLDR:3,,WDSRBLDR,,Windsor & Boulder (SW Corner),0,
40.110467,,-88.159994,UWALMART:2,http://www.cumtd.com/maps-and-schedules/bus-stops/info/uwalmart,UWALMART,,Urbana Walmart,0,
40.0695583333,,-88.2918444444,CHHLCTS:4,http://www.cumtd.com/maps-and-schedules/bus-stops/info/chhlcts,CHHLCTS,,Cherry Hills & Curtis (NW Corner),0,
40.069558333,,-88.29174333,CHHLCTS:5,http://www.cumtd.com/maps-and-schedules/bus-stops/info/chhlcts,CHHLCTS,,Cherry Hills & Curtis (NE Far Side),0,
40.108291,,-88.223785,KRANNERT,http://www.cumtd.com/maps-and-schedules/bus-stops/info/krannert,,,Krannert Center,1,
40.099490835,,-88.220456335,PAR,http://www.cumtd.com/maps-and-schedules/bus-stops/info/par,,,Pennsylvania Ave. Residence Hall,1,
40.136923,,-88.266502,ANTHYWSS:2,http://www.cumtd.com/maps-and-schedules/bus-stops/info/anthyvp,ANTHYWSS,,Anthony at Woodspring Suites (North),0,
40.136865,,-88.26662,ANTHYWSS:1,http://www.cumtd.com/maps-and-schedules/bus-stops/info/anthyvp,ANTHYWSS,,Anthony at Woodspring Suites (South),0,
40.1059975,,-88.292532,WLMOKCRST,http://www.cumtd.com/maps-and-schedules/bus-stops/info/wlmokcrst,,,William and Oakcrest,1,
40.094163,,-88.209628,RACEMUMFRD:4,http://www.cumtd.com/maps-and-schedules/bus-stops/info/racemumfrd,RACEMUMFRD,,Race & Mumford (West Side),0,
40.108946665,,-88.26865583,JOHNGRFLD,http://www.cumtd.com/maps-and-schedules/bus-stops/info/johngrfld,,,John and Garfield,1,
40.1333482233,,-88.1867037767,HMTNJFSN,http://www.cumtd.com/maps-and-schedules/bus-stops/info/hmtnjfsn,,,Hamilton and Jefferson,1,
40.1274975,,-88.2828425,HRTGPK,http://www.cumtd.com/maps-and-schedules/bus-stops/info/hrtgpk,,,Bradley at Heritage Park,1,
40.08361167,,-88.27107333,WDSRWIND:3,http://www.cumtd.com/maps-and-schedules/bus-stops/info/wdsrwind,WDSRWIND,,Windsor & Windward (SW Corner),0,
40.1491,,-88.2487333333,NEILINTR:3,http://www.cumtd.com/maps-and-schedules/bus-stops/info/neilintr,NEILINTR,,Neil & Interstate (SW Corner),0,
40.11659,,-88.25183833,CE:9,http://www.cumtd.com/maps-and-schedules/bus-stops/info/ce,CE,,Central High,0,
40.11257833,,-88.25186,SPFLDLYN:3,http://www.cumtd.com/maps-and-schedules/bus-stops/info/spfldlyn,SPFLDLYN,,Springfield & Lynn (SW Corner),0,
40.11265833,,-88.25158,SPFLDLYN:1,http://www.cumtd.com/maps-and-schedules/bus-stops/info/spfldlyn,SPFLDLYN,,Springfield & Lynn (NE Corner),0,
40.106881,,-88.312086,INVPSTWK:1,http://www.cumtd.com/maps-and-schedules/bus-stops/info/invpstwk,INVPSTWK,,Inverness & Prestwick Pt (NE Corner),0,
40.142002,,-88.181289,ARPRTSKYLN:2,,ARPRTSKYLN,,Airport & Skyline (SE Corner),0,
40.1067733765,,-88.3122558594,INVPSTWK:3,http://www.cumtd.com/maps-and-schedules/bus-stops/info/invpstwk,INVPSTWK,,Inverness & Prestwick Pt (SW Corner),0,
40.1277,,-88.298342,ALPBRAD:1,http://www.cumtd.com/maps-and-schedules/bus-stops/info/alpbrad,ALPBRAD,,Alpine & Bradley (NE Corner),0,
40.06811944,,-88.24186389,PARKVIEW:2,http://www.cumtd.com/maps-and-schedules/bus-stops/info/parkview,PARKVIEW,,Parkview (North Side),0,
40.06806667,,-88.2427222,PARKVIEW:1,http://www.cumtd.com/maps-and-schedules/bus-stops/info/parkview,PARKVIEW,,Parkview (South Side),0,
40.12723667,,-88.26089833,BRADWLS:1,http://www.cumtd.com/maps-and-schedules/bus-stops/info/bradwls,BRADWLS,,Bradley & Willis (North Side),0,
40.12779236,,-88.2985076904,ALPBRAD:4,http://www.cumtd.com/maps-and-schedules/bus-stops/info/alpbrad,ALPBRAD,,Alpine & Bradley (NW Corner),0,
40.140023,,-88.189756,NRTHWDGRG,,,,Northwood and George,1,
40.0820083333,,-88.1822472222,SSTNMOS:2,http://www.cumtd.com/maps-and-schedules/bus-stops/info/sstnmos,SSTNMOS,,Susan Stone & Moss (SE Corner),0,
40.08210167,,-88.18223,SSTNMOS:4,http://www.cumtd.com/maps-and-schedules/bus-stops/info/sstnmos,SSTNMOS,,Susan Stone & Moss (West Side),0,
40.11758667,,-88.204215,CNHMPK:2,http://www.cumtd.com/maps-and-schedules/bus-stops/info/snhmpk,CNHMPK,,Cunningham & Park (SE Corner),0,
40.138766,,-88.260557,MKTVSAMS:2,http://www.cumtd.com/maps-and-schedules/bus-stops/info/mktvsams,MKTVSAMS,,Marketview at Sams (East Side),0,
40.110863,,-88.204788,VINGRN:1,http://www.cumtd.com/maps-and-schedules/bus-stops/info/vingrn,VINGRN,,Vine & Green (NE Corner),0,
40.129905,,-88.21784667,KPDLNVW:3,http://www.cumtd.com/maps-and-schedules/bus-stops/info/kpdlnvw,KPDLNVW,,Kettering & Linview (SW Corner),0,
40.08842167,,-88.281475,WNCHBKTRN:2,http://www.cumtd.com/maps-and-schedules/bus-stops/info/wnchbktrn,WNCHBKTRN,,Winchester & Blackthorn (SE Corner),0,
40.130461665,,-88.238856665,MKTTWR,http://www.cumtd.com/maps-and-schedules/bus-stops/info/mktrpr,,,Market and Tower,1,
40.08858,,-88.28160667,WNCHBKTRN:4,http://www.cumtd.com/maps-and-schedules/bus-stops/info/wnchbktrn,WNCHBKTRN,,Winchester & Blackthorn (NW Corner),0,
40.089949,,-88.281571,WNCHBRBY,http://www.cumtd.com/maps-and-schedules/bus-stops/info/wnchbrby,,,Winchester and Barberry,1,
40.079054165,,-88.25023417,LNHSTOML,http://www.cumtd.com/maps-and-schedules/bus-stops/info/lnhstoml,,,Lyndhurst and Old Maple Lane,1,
40.11275167,,-88.2752,SPFLDMATS:6,http://www.cumtd.com/maps-and-schedules/bus-stops/info/spfldmats,SPFLDMATS,,Springfield & Mattis (SE Far Side),0,
40.11275101,,-88.2774047852,SPFLDMATS:3,http://www.cumtd.com/maps-and-schedules/bus-stops/info/spfldmats,SPFLDMATS,,Springfield & Mattis (SW Corner),0,
40.11255333,,-88.276675,SPFLDMATS:2,http://www.cumtd.com/maps-and-schedules/bus-stops/info/spfldmats,SPFLDMATS,,Springfield & Mattis (SE Corner),0,
40.12241167,,-88.219385,LNCLNWSCR:2,http://www.cumtd.com/maps-and-schedules/bus-stops/info/lnclnwscr,LNCLNWSCR,,Lincoln & Wascher (SE Corner),0,
40.1219143333,,-88.2075998867,BDWYKER,http://www.cumtd.com/maps-and-schedules/bus-stops/info/bdwyker,,,Broadway and Kerr,1,
40.11289167,,-88.27495333,SPFLDMATS:9,http://www.cumtd.com/maps-and-schedules/bus-stops/info/spfldmats,SPFLDMATS,,Springfield & Mattis (NE),0,
40.103445,,-88.31434667,STLYTRNBRY:2,http://www.cumtd.com/maps-and-schedules/bus-stops/info/stlytrnbry,STLYTRNBRY,,Staley & Turnberry (SE Corner),0,
40.11256,,-88.248535,SPFLDPRRE:3,http://www.cumtd.com/maps-and-schedules/bus-stops/info/spfldprre,SPFLDPRRE,,Springfield & Prairie (SW Corner),0,
40.122495,,-88.21953667,LNCLNWSCR:4,http://www.cumtd.com/maps-and-schedules/bus-stops/info/lnclnwscr,LNCLNWSCR,,Lincoln & Wascher (NW Corner),0,
40.12963333,,-88.243525,NEILBELL:2,http://www.cumtd.com/maps-and-schedules/bus-stops/info/neilbell,NEILBELL,,Neil & Bellefontaine (SE Corner),0,
40.139193,,-88.194596,NPLTNANTHNY:7,,NPLTNANTHNY,,Napleton & Anthony (SW Far Side),0,
40.141836,,-88.200784,ARPRTWLLW:2,,ARPRTWLLW,,Airport & Willow (SE Corner),0,
40.11935167,,-88.24359833,NEILHIL:4,http://www.cumtd.com/maps-and-schedules/bus-stops/info/neilhil,NEILHIL,,Neil & Hill (NW Corner),0,
40.131094585,,-88.18221125,BNFLDCLMBA,http://www.cumtd.com/maps-and-schedules/bus-stops/info/bnfldclmba,,,Brownfield and Columbia,1,
40.1125558,,-88.2434082222,NEILSPFLD,http://www.cumtd.com/maps-and-schedules/bus-stops/info/neilspfld,,,Neil and Springfield,1,
40.11019167,,-88.237145,GRN2ND:3,http://www.cumtd.com/maps-and-schedules/bus-stops/info/grn2nd,GRN2ND,,Green & Second (SW Corner),0,
40.11026833,,-88.2369,GRN2ND:1,http://www.cumtd.com/maps-and-schedules/bus-stops/info/grn2nd,GRN2ND,,Green & Second (NE Corner),0,
40.1312345,,-88.197626,KNYNESTLND,,,,Kenyon at Eastland Suites,1,
40.096501665,,-88.214249165,ODNS,http://www.cumtd.com/maps-and-schedules/bus-stops/info/odns,,,Orchard Downs North Shelter,1,
40.12709667,,-88.3082199097,BLGRSSMRSG:3,http://www.cumtd.com/maps-and-schedules/bus-stops/info/blgrssmrsg,BLGRSSMRSG,,Bluegrass & Summersage (SW Corner),0,
40.08991167,,-88.2504725,FOXDVN,http://www.cumtd.com/maps-and-schedules/bus-stops/info/foxdvn,,,Fox and Devonshire,1,
40.105445,,-88.28980167,WSFLDSRDN:4,http://www.cumtd.com/maps-and-schedules/bus-stops/info/wsfldsrdn,WSFLDSRDN,,Westfield & Sheridan (NW Corner),0,
40.105209,,-88.289746,WSFLDSRDN:2,http://www.cumtd.com/maps-and-schedules/bus-stops/info/wsfldsrdn,WSFLDSRDN,,Westfield & Sheridan (SE Corner),0,
40.10772,,-88.20497333,VINOR:4,http://www.cumtd.com/maps-and-schedules/bus-stops/info/vinor,VINOR,,Vine & Oregon (NW Corner),0,
40.1040638889,,-88.2218,GRGDNR:2,http://www.cumtd.com/maps-and-schedules/bus-stops/info/grgdnr,GRGDNR,,Gregory & Dorner (SE Corner),0,
40.10758667,,-88.20485833,VINOR:2,http://www.cumtd.com/maps-and-schedules/bus-stops/info/vinor,VINOR,,Vine & Oregon (SE Corner),0,
40.093666,,-88.272399,BDMRLSDED:3,http://www.cumtd.com/maps-and-schedules/bus-stops/info/bdmrlsded,BDMRLSDED,,Broadmoor & Lakeside (SW Corner),0,
40.12119833,,-88.23211083,5THCLMBA,http://www.cumtd.com/maps-and-schedules/bus-stops/info/5thclmba,,,Fifth and Columbia,1,
40.09374833,,-88.27214,BDMRLSDED:1,http://www.cumtd.com/maps-and-schedules/bus-stops/info/bdmrlsded,BDMRLSDED,,Broadmoor & Lakeside (NE Corner),0,
40.1089675,,-88.27429167,JOHNVCTR,http://www.cumtd.com/maps-and-schedules/bus-stops/info/johnvctr,,,John and Victor,1,
40.08361,,-88.26874167,WDSRCLSL:3,http://www.cumtd.com/maps-and-schedules/bus-stops/info/wdsrclsl,WDSRCLSL,,Windsor & Carlisle (South Side),0,
40.118361618,,-88.2287912354,WRTCHCH,http://www.cumtd.com/maps-and-schedules/bus-stops/info/wrtchch,,,Wright and Church,1,
40.08374333,,-88.26851167,WDSRCLSL:1,http://www.cumtd.com/maps-and-schedules/bus-stops/info/wdsrclsl,WDSRCLSL,,Windsor & Carlisle (NE Corner),0,
40.14462333,,-88.27342833,QNWAYRLND:2,http://www.cumtd.com/maps-and-schedules/bus-stops/info/qnwayrlnd,QNWAYRLND,,Queensway & Roland (SE Corner),0,
40.14454833,,-88.273515,QNWAYRLND:7,http://www.cumtd.com/maps-and-schedules/bus-stops/info/qnwayrlnd,QNWAYRLND,,Queensway & Roland (SW Far Side),0,
40.09267,,-88.258865,BDMRDVD:3,http://www.cumtd.com/maps-and-schedules/bus-stops/info/bdmrdvd,BDMRDVD,,Broadmoor & David (SW Corner),0,
40.125425,,-88.245175,RNDLFERKA,http://www.cumtd.com/maps-and-schedules/bus-stops/info/rndlferka,,,Randolph and Eureka,1,
40.07701333,,-88.18522,MYRATRLS:4,http://www.cumtd.com/maps-and-schedules/bus-stops/info/myratrls,MYRATRLS,,Myra Ridge & Trails (NW Corner),0,
40.12774167,,-88.27706,BRADMATS:4,http://www.cumtd.com/maps-and-schedules/bus-stops/info/bradmats,BRADMATS,,Bradley & Mattis (NW Corner),0,
40.12734833,,-88.27729,BRADMATS:3,http://www.cumtd.com/maps-and-schedules/bus-stops/info/bradmats,BRADMATS,,Bradley & Mattis (SW Corner),0,
40.127505,,-88.27641333,BRADMATS:1,http://www.cumtd.com/maps-and-schedules/bus-stops/info/bradmats,BRADMATS,,Bradley & Mattis (NE Corner),0,
40.0875244141,,-88.3206481934,MLKNRMGNTN:4,http://www.cumtd.com/maps-and-schedules/bus-stops/info/mlknrmgntn,MLKNRMGNTN,,Mullikin & Remington Way (NW Corner),0,
40.113242125,,-88.30213216,SPRINGPLAS,http://www.cumtd.com/maps-and-schedules/bus-stops/info/springplas,,,Springfield at Plastipak,1,
40.1041564941,,-88.2191085815,LAR:2,http://www.cumtd.com/maps-and-schedules/bus-stops/info/lar,LAR,,LAR (East Side),0,
40.11270167,,-88.17275,MNDWY:8,http://www.cumtd.com/maps-and-schedules/bus-stops/info/mndwy,MNDWY,,Main & Dewey (North Side),0,
40.1041030884,,-88.2192687988,LAR:1,http://www.cumtd.com/maps-and-schedules/bus-stops/info/lar,LAR,,LAR (West Side),0,
40.1059650025,,-88.2194391675,NVLNCLN,http://www.cumtd.com/maps-and-schedules/bus-stops/info/nvlncln,,,Nevada and Lincoln,1,
40.11262833,,-88.17268333,MNDWY:3,http://www.cumtd.com/maps-and-schedules/bus-stops/info/mndwy,MNDWY,,Main & Dewey (SW Corner),0,
40.12350667,,-88.19470833,CROL:1,http://www.cumtd.com/maps-and-schedules/bus-stops/info/crol,CROL,,Carroll (West Side),0,
40.11727333,,-88.219315,LNCLNPK:2,http://www.cumtd.com/maps-and-schedules/bus-stops/info/lnclnpk,LNCLNPK,,Lincoln & Park (SE Corner),0,
40.10921333,,-88.219365,LNCLNIL:4,http://www.cumtd.com/maps-and-schedules/bus-stops/info/lnclnil,LNCLNIL,,Lincoln & Illinois (NW Corner),0,
40.10901667,,-88.21950833,LNCLNIL:3,http://www.cumtd.com/maps-and-schedules/bus-stops/info/lnclnil,LNCLNIL,,Lincoln & Illinois (SW Corner),0,
40.1024152778,,-88.221825,PSL,http://www.cumtd.com/maps-and-schedules/bus-stops/info/psl,,,Plant Sciences Lab,1,
40.11742333,,-88.21947333,LNCLNPK:4,http://www.cumtd.com/maps-and-schedules/bus-stops/info/lnclnpk,LNCLNPK,,Lincoln & Park (West Side),0,
40.094437,,-88.322875,MLKNWSTBRGH:4,http://www.cumtd.com/maps-and-schedules/bus-stops/info/mlknwstbrgh,MLKNWSTBRGH,,Mullikin & Westborough (NW Corner),0,
40.1166114807,,-88.2518081665,CENTRAL:9,http://www.cumtd.com/maps-and-schedules/bus-stops/info/central,CENTRAL,,Central High,0,
40.094657,,-88.283432,BDMRCRSNT:3,http://www.cumtd.com/maps-and-schedules/bus-stops/info/bdmrcrsnt,BDMRCRSNT,,Broadmoor & Crescent (SW Corner),0,
40.11706,,-88.18638167,GRD,http://www.cumtd.com/maps-and-schedules/bus-stops/info/grd,,,Butzow at Guardian West,1,
40.094268,,-88.32279,MLKNWSTBRGH:2,http://www.cumtd.com/maps-and-schedules/bus-stops/info/mlknwstbrgh,MLKNWSTBRGH,,Mullikin & Westborough (SE Corner),0,
40.10911167,,-88.2197,LNCLNIL:8,http://www.cumtd.com/maps-and-schedules/bus-stops/info/lnclnil,LNCLNIL,,Lincoln & Illinois (NW Far Side),0,
40.09589333,,-88.257623335,PSPCTLNSH,http://www.cumtd.com/maps-and-schedules/bus-stops/info/pspctlnsh,,,Prospect and Lincolnshire,1,
40.11415833,,-88.173105,150DOD:5,http://www.cumtd.com/maps-and-schedules/bus-stops/info/150dod,150DOD,,U.S. 150 & Dodson (NE Far Side),0,
40.1258,,-88.28023167,CFDCAMP:4,http://www.cumtd.com/maps-and-schedules/bus-stops/info/cfdcamp,CFDCAMP,,Country Fair Dr. & Camp (NW Corner),0,
40.1220958333,,-88.2580038333,PSPCTVIN,http://www.cumtd.com/maps-and-schedules/bus-stops/info/pspctvin,,,Prospect and Vine,1,
40.129893,,-88.183366,BNFLDPKNS:1,http://www.cumtd.com/maps-and-schedules/bus-stops/info/bnfldpkns,BNFLDPKNS,,Brownfield & Perkins (NE Corner),0,
40.094405,,-88.237127,STMARYSIHTL:1,,STMARYSIHTL,,St. Mary's Road at iHotel (South Side),0,
40.12558333,,-88.28012833,CFDCAMP:2,http://www.cumtd.com/maps-and-schedules/bus-stops/info/cfdcamp,CFDCAMP,,Country Fair Dr. & Camp (SE Corner),0,
40.10355,,-88.314394835,STLYTRNBRY,http://www.cumtd.com/maps-and-schedules/bus-stops/info/stlytrnbry,,,Staley and Turnberry,1,
40.110884,,-88.199953,GRNADRSN:1,http://www.cumtd.com/maps-and-schedules/bus-stops/info/grnadrsn,GRNADRSN,,Green & Anderson (North Side),0,
40.0983776675,,-88.195553335,FLCTGRV,http://www.cumtd.com/maps-and-schedules/bus-stops/info/flctgrv,,,Florida and Cottage Grove,1,
40.11082167,,-88.20042167,GRNADRSN:3,http://www.cumtd.com/maps-and-schedules/bus-stops/info/grnadrsn,GRNADRSN,,Green & Anderson (SW Corner),0,
40.13540333,,-88.27513833,PLACYNTHA:3,http://www.cumtd.com/maps-and-schedules/bus-stops/info/placyntha,PLACYNTHA,,Paula & Cynthia (SW Corner),0,
40.126415,,-88.25806333,PSPCTBRD,http://www.cumtd.com/maps-and-schedules/bus-stops/info/pspctbrd,,,Prospect and Beardsley,1,
40.086834,,-88.276293,MATSBRCH:2,http://www.cumtd.com/maps-and-schedules/bus-stops/info/matsbrch,MATSBRCH,,Mattis & Branch (East Side),0,
40.111668,,-88.223815,GDWNMRL:2,http://www.cumtd.com/maps-and-schedules/bus-stops/info/gdwnmrl,GDWNMRL,,Goodwin at Materials Research,0,
40.068093055,,-88.242293045,PARKVIEW,http://www.cumtd.com/maps-and-schedules/bus-stops/info/parkview,,,Parkview,1,
40.110219165,,-88.240266665,GRNLCST,http://www.cumtd.com/maps-and-schedules/bus-stops/info/grnlcst,,,Green and Locust,1,
40.0674361111,,-88.2903805556,RLACRVLKDR,http://www.cumtd.com/maps-and-schedules/bus-stops/info/rlacrvlkdr,,,Rolling Acres and Valkar Dr.,1,
40.096075,,-88.295336,DNCNWTRSN:4,http://www.cumtd.com/maps-and-schedules/bus-stops/info/dncnwtrsn,DNCNWTRSN,,Duncan & Watterson (NW Corner),0,
40.096351335,,-88.315802,CTSMDWFXBRGH,http://www.cumtd.com/maps-and-schedules/bus-stops/info/ctsmdwfxbrgh,,,Curtis Meadow and Foxborough,1,
40.115935,,-88.24094667,IT:1,http://www.cumtd.com/maps-and-schedules/bus-stops/info/it,IT,,Illinois Terminal (Platform A),0,
40.115535,,-88.241104,IT:2,http://www.cumtd.com/maps-and-schedules/bus-stops/info/it,IT,,Illinois Terminal (Platform B),0,
40.096371,,-88.315704,CTSMDWFXBRGH:1,http://www.cumtd.com/maps-and-schedules/bus-stops/info/ctsmdwfxbrgh,CTSMDWFXBRGH,,Curtis Meadow & Foxborough (North Side),0,
40.093069165,,-88.195338335,CTGRVBRITN,http://www.cumtd.com/maps-and-schedules/bus-stops/info/ctgrvbritn,,,Cottage Grove and Brighton,1,
40.09633167,,-88.3159,CTSMDWFXBRGH:3,http://www.cumtd.com/maps-and-schedules/bus-stops/info/ctsmdwfxbrgh,CTSMDWFXBRGH,,Curtis Meadow & Foxborough (SW Corner),0,
40.10911389,,-88.2195244433,LNCLNIL,http://www.cumtd.com/maps-and-schedules/bus-stops/info/lnclnil,,,Lincoln and Illinois,1,
40.149225,,-88.23904,MKTMERC:2,http://www.cumtd.com/maps-and-schedules/bus-stops/info/mktmerc,MKTMERC,,Market & Mercury (SE Corner),0,
40.14477167,,-88.25808333,PSPCTMJR:4,http://www.cumtd.com/maps-and-schedules/bus-stops/info/pspctmjr,PSPCTMJR,,Prospect at Meijer (NW Corner),0,
40.094127,,-88.209594,RACEMUMFRD,http://www.cumtd.com/maps-and-schedules/bus-stops/info/racemumfrd,,,Race and Mumford,1,
40.0839691162,,-88.1905670166,PHILOWDSR:4,http://www.cumtd.com/maps-and-schedules/bus-stops/info/philowdsr,PHILOWDSR,,Philo & Windsor (NW Corner),0,
40.11734833,,-88.22847333,PKWRT:6,http://www.cumtd.com/maps-and-schedules/bus-stops/info/pkwrt,PKWRT,,Park & Wright (SE Far Side),0,
40.083895,,-88.188764,PHILOWDSR:1,http://www.cumtd.com/maps-and-schedules/bus-stops/info/philowdsr,PHILOWDSR,,Philo & Windsor (NE),0,
40.09124667,,-88.26907,MYFRTDR:2,http://www.cumtd.com/maps-and-schedules/bus-stops/info/myfrtdr,MYFRTDR,,Mayfair & Theodore (SE Corner),0,
40.0983452909,,-88.2333507124,4THKBY,http://www.cumtd.com/maps-and-schedules/bus-stops/info/4thkby,,,Fourth and Kirby,1,
40.08357833,,-88.19043833,PHILOWDSR:2,http://www.cumtd.com/maps-and-schedules/bus-stops/info/philowdsr,PHILOWDSR,,Philo & Windsor (SE Corner),0,
40.098814165,,-88.183171665,FLCRTS,http://www.cumtd.com/maps-and-schedules/bus-stops/info/flcrts,,,Florida and Curtiss,1,
40.098985,,-88.21935333,LNCLNCC:3,http://www.cumtd.com/maps-and-schedules/bus-stops/info/lnclncc,LNCLNCC,,Lincoln & College Ct. (SW Corner),0,
40.11659,,-88.25183833,CE,http://www.cumtd.com/maps-and-schedules/bus-stops/info/ce,,,Central High East,1,
40.114265,,-88.24509,RNDLFWHT,http://www.cumtd.com/maps-and-schedules/bus-stops/info/rndlfwht,,,Randolph and White,1,
40.06742833,,-88.23868833,INDIGO:2,http://www.cumtd.com/maps-and-schedules/bus-stops/info/indigo,INDIGO,,The Place at 117 (East Side),0,
40.11844667,,-88.274765,CHCHVCTR,http://www.cumtd.com/maps-and-schedules/bus-stops/info/chchvctr,,,Church and Victor,1,
40.092374165,,-88.1956275,CTGRVMCHM,http://www.cumtd.com/maps-and-schedules/bus-stops/info/ctgrvmchm,,,Cottage Grove and Mitchem,1,
40.115885,,-88.189400835,UNILRMN,http://www.cumtd.com/maps-and-schedules/bus-stops/info/unilrmn,,,University and Lierman,1,
40.100336665,,-88.1813625,VTKNCH,http://www.cumtd.com/maps-and-schedules/bus-stops/info/vtknch,,,Vermont and Kinch,1,
40.09372,,-88.19879833,ADRSNHRDG:4,http://www.cumtd.com/maps-and-schedules/bus-stops/info/adrsnhrdg,ADRSNHRDG,,Anderson & Harding (NW Corner),0,
40.13452333,,-88.177105,BNFLDML:4,http://www.cumtd.com/maps-and-schedules/bus-stops/info/bnfldml,BNFLDML,,Brownfield & Mary Lou (West Side),0,
40.10500167,,-88.24675833,STESTNAG:4,http://www.cumtd.com/maps-and-schedules/bus-stops/info/stestnag,STESTNAG,,State & Stanage (NW Corner),0,
40.121325,,-88.24361833,NEILCLMBA:4,http://www.cumtd.com/maps-and-schedules/bus-stops/info/neilclmba,NEILCLMBA,,Neil & Columbia (NW Corner),0,
40.11016833,,-88.240415,GRNLCST:3,http://www.cumtd.com/maps-and-schedules/bus-stops/info/grnlcst,GRNLCST,,Green & Locust (SW Corner),0,
40.11027,,-88.24011833,GRNLCST:1,http://www.cumtd.com/maps-and-schedules/bus-stops/info/grnlcst,GRNLCST,,Green & Locust (NE Corner),0,
40.121166,,-88.243387,NEILCLMBA:1,http://www.cumtd.com/maps-and-schedules/bus-stops/info/neilclmba,NEILCLMBA,,Neil & Columbia (NE Corner),0,
40.120985,,-88.24349,NEILCLMBA:2,http://www.cumtd.com/maps-and-schedules/bus-stops/info/neilclmba,NEILCLMBA,,Neil & Columbia (SE Corner),0,
40.094405,,-88.237127,STMARYSIHTL,,,,St. Mary's Road at iHotel,1,
40.10280333,,-88.238675,1STSTDM:4,http://www.cumtd.com/maps-and-schedules/bus-stops/info/1ststdm,1STSTDM,,First & Stadium (NW Corner),0,
40.102675,,-88.23877833,1STSTDM:3,http://www.cumtd.com/maps-and-schedules/bus-stops/info/1ststdm,1STSTDM,,First & Stadium (SW Corner),0,
40.10257,,-88.23859167,1STSTDM:2,http://www.cumtd.com/maps-and-schedules/bus-stops/info/1ststdm,1STSTDM,,First & Stadium (SE Corner),0,
40.081673,,-88.3091345,YMCA,,,,Stephens Family YMCA,1,
40.094216,,-88.275929,MATSBDMR:6,http://www.cumtd.com/maps-and-schedules/bus-stops/info/matsbdmr,MATSBDMR,,Mattis & Broadmoor (SE Far Side),0,
40.11554333,,-88.17852333,SMITHCRE,http://www.cumtd.com/maps-and-schedules/bus-stops/info/smithcre,,,Smith and Carrie,1,
40.12498167,,-88.21956167,ONESOUTH:1,http://www.cumtd.com/maps-and-schedules/bus-stops/info/onesouth,ONESOUTH,,One Illinois South,0,
40.073536665,,-88.206093335,SWNDSWNC,http://www.cumtd.com/maps-and-schedules/bus-stops/info/swndswnc,,,Sherwin and Sherwin Cir.,1,
40.11443833,,-88.22891167,WHTWRT:2,http://www.cumtd.com/maps-and-schedules/bus-stops/info/whtwrt,WHTWRT,,White & Wright (SE Corner),0,
40.11291,,-88.18647,MNILEAS:1,http://www.cumtd.com/maps-and-schedules/bus-stops/info/ccnh,MNILEAS,,Main at ILEAS (South Side),0,
40.112995,,-88.18645833,MNILEAS:2,http://www.cumtd.com/maps-and-schedules/bus-stops/info/ccnh,MNILEAS,,Main at ILEAS (North Side),0,
40.10233167,,-88.24651,STEHSL:1,http://www.cumtd.com/maps-and-schedules/bus-stops/info/stehsl,STEHSL,,State & Hessel (NE Corner),0,
40.11522667,,-88.245105,RNDLFCLARK:2,http://www.cumtd.com/maps-and-schedules/bus-stops/info/rndlfclark,RNDLFCLARK,,Randolph & Clark (SE Corner),0,
40.07405,,-88.20349167,SWNDPNDR:2,http://www.cumtd.com/maps-and-schedules/bus-stops/info/swndpndr,SWNDPNDR,,Sherwin & Pond Ridge (SE Corner),0,
40.10214833,,-88.24665,STEHSL:2,http://www.cumtd.com/maps-and-schedules/bus-stops/info/stehsl,STEHSL,,State & Hessel (SE Corner),0,
40.12765333,,-88.29160333,BRAD:2,http://www.cumtd.com/maps-and-schedules/bus-stops/info/brad,BRAD,,Bradley (North Side),0,
40.13137167,,-88.24372,NEILEGB:4,http://www.cumtd.com/maps-and-schedules/bus-stops/info/neilegb,NEILEGB,,Neil & Edgebrook (NW Corner),0,
40.11999167,,-88.23553167,WASH3RD:3,http://www.cumtd.com/maps-and-schedules/bus-stops/info/wash3rd,WASH3RD,,Washington & Third (SW Corner),0,
40.13128667,,-88.24353667,NEILEGB:2,http://www.cumtd.com/maps-and-schedules/bus-stops/info/neilegb,NEILEGB,,Neil & Edgebrook (SE Corner),0,
40.089757165,,-88.314274665,IRNWDSTLY,http://www.cumtd.com/maps-and-schedules/bus-stops/info/irnwdstly,,,Ironwood and Staley,1,
40.09949,,-88.220416,PAR:2,http://www.cumtd.com/maps-and-schedules/bus-stops/info/par,PAR,,PAR (North Side Shelter),0,
40.10940167,,-88.20502833,VINIL:4,http://www.cumtd.com/maps-and-schedules/bus-stops/info/vinil,VINIL,,Vine & Illinois (NW Corner),0,
40.08368667,,-88.249665,FOXWDSR:4,http://www.cumtd.com/maps-and-schedules/bus-stops/info/foxwdsr,FOXWDSR,,Fox & Windsor (NW Corner),0,
40.0840911865,,-88.24961,FOXWDSR:5,http://www.cumtd.com/maps-and-schedules/bus-stops/info/foxwdsr,FOXWDSR,,Fox & Windsor (NE Far Side),0,
40.099982,,-88.295123,DNCNLWNDL:1,http://www.cumtd.com/maps-and-schedules/bus-stops/info/dncnlwndl,DNCNLWNDL,,Duncan & Lawndale (NE Corner),0,
40.109344165,,-88.28613333,JOHNKNWD,http://www.cumtd.com/maps-and-schedules/bus-stops/info/johnknwd,,,John and Kenwood,1,
40.08696667,,-88.238265,1STGTY:7,http://www.cumtd.com/maps-and-schedules/bus-stops/info/1stgty,1STGTY,,First & Gerty (SW Far Side),0,
40.09829167,,-88.27113,KBYWAVE,http://www.cumtd.com/maps-and-schedules/bus-stops/info/kbywave,,,Kirby and Waverly,1,
40.1323391436,,-88.21945326,LNCLNKLRNY,http://www.cumtd.com/maps-and-schedules/bus-stops/info/lnclnklrny,,,Lincoln and Killarney,1,
40.098365,,-88.21922333,FLLNCLN:4,http://www.cumtd.com/maps-and-schedules/bus-stops/info/fllncln,FLLNCLN,,Florida & Lincoln (NW Corner),0,
40.11625833,,-88.260215,UNIWLS:3,http://www.cumtd.com/maps-and-schedules/bus-stops/info/uniwls,UNIWLS,,University & Willis (SW Corner),0,
40.09802,,-88.21899167,FLLNCLN:2,http://www.cumtd.com/maps-and-schedules/bus-stops/info/fllncln,FLLNCLN,,Florida & Lincoln (SE Corner),0,
40.134629165,,-88.27290583,PLAGH,http://www.cumtd.com/maps-and-schedules/bus-stops/info/plagh,,,Paula and Garden Hills Drive,1,
40.09826,,-88.21886167,FLLNCLN:1,http://www.cumtd.com/maps-and-schedules/bus-stops/info/fllncln,FLLNCLN,,Florida & Lincoln (NE Corner),0,
40.11636167,,-88.27498,UNIVCTR,http://www.cumtd.com/maps-and-schedules/bus-stops/info/univctr,,,University and Victor,1,
40.11629289,,-88.2518136667,UNILYN,http://www.cumtd.com/maps-and-schedules/bus-stops/info/unilyn,,,University and Lynn,1,
40.1067715956,,-88.3096383208,CBLFLDINV,http://www.cumtd.com/maps-and-schedules/bus-stops/info/cbfldinv,,,Cobblefield and Inverness,1,
40.069558,,-88.250216,WDFLDCTS:5,http://www.cumtd.com/maps-and-schedules/bus-stops/info/wdfldcts,WDFLDCTS,,Woodfield & Curtis (NE Far Side),0,
40.069145,,-88.25031667,WDFLDCTS:4,http://www.cumtd.com/maps-and-schedules/bus-stops/info/wdfldcts,WDFLDCTS,,Woodfield & Curtis (NW Corner),0,
40.091480835,,-88.1930725,SLVRFLCHR,http://www.cumtd.com/maps-and-schedules/bus-stops/info/slvrflchr,,,Silver and Fletcher,1,
40.122502,,-88.295713665,CLTNDNCN,http://www.cumtd.com/maps-and-schedules/bus-stops/info/cltndncn,,,Clayton and Duncan,1,
40.13725833,,-88.277305,MATSUSPS:1,http://www.cumtd.com/maps-and-schedules/bus-stops/info/matsusps,MATSUSPS,,Mattis at Post Office (West Side),0,
40.136835,,-88.24357,NEILANT:2,http://www.cumtd.com/maps-and-schedules/bus-stops/info/neilant,NEILANT,,Neil & Anthony (SE Corner),0,
40.081572,,-88.309155,YMCA:2,,YMCA,,Stephens Family YMCA (East Side),0,
40.09667,,-88.19946667,ADRSNBKWD:4,http://www.cumtd.com/maps-and-schedules/bus-stops/info/adrsnbkwd,ADRSNBKWD,,Anderson & Burkwood (NW Corner),0,
40.1090698242,,-88.2468338013,STEJOHN:4,http://www.cumtd.com/maps-and-schedules/bus-stops/info/stejohn,STEJOHN,,State & John (NW Corner),0,
40.081774,,-88.309114,YMCA:1,,YMCA,,Stephens Family YMCA (West Side),0,
40.108965,,-88.246905,STEJOHN:3,http://www.cumtd.com/maps-and-schedules/bus-stops/info/stejohn,STEJOHN,,State & John (SW Corner),0,
40.098312,,-88.192224,FLSUN:3,http://www.cumtd.com/maps-and-schedules/bus-stops/info/flsun,FLSUN,,Sunnycrest Mall (SW),0,
40.098442,,-88.19216,FLSUN:2,http://www.cumtd.com/maps-and-schedules/bus-stops/info/flsun,FLSUN,,Sunnycrest Mall (North Side),0,
40.1450666667,,-88.2483666667,NEILWLGFRD:2,http://www.cumtd.com/maps-and-schedules/bus-stops/info/neilwlgfrd,NEILWLGFRD,,Neil & Walingford (SE Corner),0,
40.135691,,-88.226865,ANTNWH:1,,ANTNWH,,Anthony at National Warehouse (NE),0,
40.10373833,,-88.20257333,FRLN:1,http://www.cumtd.com/maps-and-schedules/bus-stops/info/frln,FRLN,,Fairlawn (South Side),0,
40.096415,,-88.269961,MYFRGTOWN:2,http://www.cumtd.com/maps-and-schedules/bus-stops/info/myfrgtown,MYFRGTOWN,,Mayfair & Georgetown (SE Corner),0,
40.1451666667,,-88.2485333333,NEILWLGFRD:4,http://www.cumtd.com/maps-and-schedules/bus-stops/info/neilwlgfrd,NEILWLGFRD,,Neil & Walingford (NW Corner),0,
40.11462,,-88.22404167,GWNMN:4,http://www.cumtd.com/maps-and-schedules/bus-stops/info/gwnmn,GWNMN,,Goodwin & Main (NW Corner),0,
40.096525,,-88.270008,MYFRGTOWN:4,http://www.cumtd.com/maps-and-schedules/bus-stops/info/myfrgtown,MYFRGTOWN,,Mayfair & Georgetown (NW Corner),0,
40.11739333,,-88.24687,STEPK,http://www.cumtd.com/maps-and-schedules/bus-stops/info/stepk,,,State and Park,1,
40.1130850025,,-88.17843125,MNSMITH,http://www.cumtd.com/maps-and-schedules/bus-stops/info/mnsmith,,,Main and Smith Rd.,1,
40.114335,,-88.22398333,GWNMN:2,http://www.cumtd.com/maps-and-schedules/bus-stops/info/gwnmn,GWNMN,,Goodwin & Main (SE Corner),0,
40.14646149,,-88.26029968,MEIJER:1,http://www.cumtd.com/maps-and-schedules/bus-stops/info/meijer,MEIJER,,Meijer Dr. at Meijer (South Side),0,
40.102935,,-88.20959,RACEIN:2,http://www.cumtd.com/maps-and-schedules/bus-stops/info/racein,RACEIN,,Race & Indiana (SE Corner),0,
40.087031665,,-88.281493335,WNCHBRCH,http://www.cumtd.com/maps-and-schedules/bus-stops/info/wnchbrch,,,Winchester and Branch,1,
40.11415833,,-88.173105,150DOD,http://www.cumtd.com/maps-and-schedules/bus-stops/info/150dod,,,U.S. 150 and Dodson Dr.,1,
40.127553335,,-88.176928335,PKNSCOOK,http://www.cumtd.com/maps-and-schedules/bus-stops/info/pknscook,,,Perkins and Cooks Lane,1,
40.11293833,,-88.29236667,GC:1,http://www.cumtd.com/maps-and-schedules/bus-stops/info/gc,GC,,Ginger Creek (South Side),0,
40.113025,,-88.29215833,GC:2,http://www.cumtd.com/maps-and-schedules/bus-stops/info/gc,GC,,Ginger Creek (North Side),0,
40.09475833,,-88.28331833,BDMRCRSNT:4,http://www.cumtd.com/maps-and-schedules/bus-stops/info/bdmrcrsnt,BDMRCRSNT,,Broadmoor & Crescent (NW Corner),0,
40.08787,,-88.199445835,MHRYADRSN,http://www.cumtd.com/maps-and-schedules/bus-stops/info/mhryadrsn,,,McHenry and Anderson,1,
40.12333333,,-88.21954833,LNCLNEADS,http://www.cumtd.com/maps-and-schedules/bus-stops/info/lnclneads,,,Lincoln and Eads,1,
40.117492,,-88.212811,PKMCCLGH:4,http://www.cumtd.com/maps-and-schedules/bus-stops/info/pkmcclgh,PKMCCLGH,,Park & McCullough (NW Corner),0,
40.094688,,-88.311343,BNTBRKPNCRST:4,http://www.cumtd.com/maps-and-schedules/bus-stops/info/bntbrkpncrst,BNTBRKPNCRST,,Bentbrook & Pinecrest (NW Corner),0,
40.104845,,-88.24502167,RNDLFSTNAG,http://www.cumtd.com/maps-and-schedules/bus-stops/info/rndlfstnag,,,Randolph and Stanage,1,
40.092581,,-88.316725,BRTTRLSTHFRD:3,http://www.cumtd.com/maps-and-schedules/bus-stops/info/brttrlsthfrd,BRTTRLSTHFRD,,Brittany Trail & Southford (SW Corner),0,
40.0963455567,,-88.3143142233,CTSMDWSTLY,http://www.cumtd.com/maps-and-schedules/bus-stops/info/ctsmdwstly,,,Curtis Meadow and Staley,1,
40.09258,,-88.31656333,BRTTRLSTHFRD:1,http://www.cumtd.com/maps-and-schedules/bus-stops/info/brttrlsthfrd,BRTTRLSTHFRD,,Brittany Trail & Southford (NE Corner),0,
40.125276,,-88.308981,SWTCHGRSWLDFLWR:4,http://www.cumtd.com/maps-and-schedules/bus-stops/info/swtchgrswldflwr,SWTCHGRSWLDFLWR,,Switchgrass & Wildflower (NW Corner),0,
40.09434333,,-88.276545,MATSBDMR:4,http://www.cumtd.com/maps-and-schedules/bus-stops/info/matsbdmr,MATSBDMR,,Mattis & Broadmoor (NW Corner),0,
40.118365,,-88.269005,CHCHGRFLD:1,http://www.cumtd.com/maps-and-schedules/bus-stops/info/chchgrfld,CHCHGRFLD,,Church & Garfield (NE Corner),0,
40.094146,,-88.276378,MATSBDMR:2,http://www.cumtd.com/maps-and-schedules/bus-stops/info/matsbdmr,MATSBDMR,,Mattis & Broadmoor (SE Corner),0,
40.125119,,-88.308856,SWTCHGRSWLDFLWR:2,http://www.cumtd.com/maps-and-schedules/bus-stops/info/swtchgrswldflwr,SWTCHGRSWLDFLWR,,Switchgrass & Wildflower (SE Corner),0,
40.094295,,-88.276185,MATSBDMR:1,http://www.cumtd.com/maps-and-schedules/bus-stops/info/matsbdmr,MATSBDMR,,Mattis & Broadmoor (NE Corner),0,
40.0835767701,,-88.2708897534,WDSRWIND,http://www.cumtd.com/maps-and-schedules/bus-stops/info/wdsrwind,,,Windsor and Windward Blvd.,1,
40.1129684448,,-88.1681671143,MN150:7,http://www.cumtd.com/maps-and-schedules/bus-stops/info/mn150,MN150,,Main & University (SW Far Side),0,
40.1131515503,,-88.1679153442,MN150:2,http://www.cumtd.com/maps-and-schedules/bus-stops/info/mn150,MN150,,Main & University (SE Corner),0,
40.096497,,-88.314322,CTSMDWSTLY:4,http://www.cumtd.com/maps-and-schedules/bus-stops/info/ctsmdwstly,CTSMDWSTLY,,Curtis Meadow & Staley (NW Corner),0,
40.12127167,,-88.246905,STECLMBA:4,http://www.cumtd.com/maps-and-schedules/bus-stops/info/steclmba,STECLMBA,,State & Columbia (NW Corner),0,
40.0777075,,-88.291615,LKVWWGWD,http://www.cumtd.com/maps-and-schedules/bus-stops/info/lkvwwgwd,,,Lakeview and Wedgewood,1,
40.09245333,,-88.195645,CTGRVMCHM:4,http://www.cumtd.com/maps-and-schedules/bus-stops/info/ctgrvmchm,CTGRVMCHM,,Cottage Grove & Mitchem (NW Corner),0,
40.09828833,,-88.28594167,KBYKNWD:3,http://www.cumtd.com/maps-and-schedules/bus-stops/info/kbyknwd,KBYKNWD,,Kirby & Kenwood (South Side),0,
40.11739,,-88.29547,DNCNCLKRD:2,http://www.cumtd.com/maps-and-schedules/bus-stops/info/dncnclkrd,DNCNCLKRD,,Duncan & Clark (SE Corner),0,
40.114924,,-88.311067,FLDSTNMETRI:4,,FLDSTNMETRI,,Fieldstone at Metritech (West Side),0,
40.117645,,-88.29555333,DNCNCLKRD:4,http://www.cumtd.com/maps-and-schedules/bus-stops/info/dncnclkrd,DNCNCLKRD,,Duncan & Clark (NW Corner),0,
40.143826665,,-88.2734725,RLNDAZTEC,http://www.cumtd.com/maps-and-schedules/bus-stops/info/rlndaztec,,,Roland and Aztec,1,
40.12498,,-88.24365833,NEILERKA:4,http://www.cumtd.com/maps-and-schedules/bus-stops/info/neilerka,NEILERKA,,Neil & Eureka (NW Corner),0,
40.1381083333,,-88.2576338867,PSPCTMKTV,http://www.cumtd.com/maps-and-schedules/bus-stops/info/pspctmktv,,,Prospect and Marketview,1,
40.0771312714,,-88.2708015442,SSXWIND,http://www.cumtd.com/maps-and-schedules/bus-stops/info/ssxwind,,,Sussex and Windward,1,
40.112811,,-88.281928,SPFLDCFD:6,http://www.cumtd.com/maps-and-schedules/bus-stops/info/spfldcfd,SPFLDCFD,,Springfield & Country Fair Dr. (SE Far),0,
40.144435,,-88.240381,MKTPLCN:1,http://www.cumtd.com/maps-and-schedules/bus-stops/info/mktplcn,MKTPLCN,,Market Place North Entrance (NE Corner),0,
40.144204,,-88.240259,MKTPLCN:2,http://www.cumtd.com/maps-and-schedules/bus-stops/info/mktplcn,MKTPLCN,,Market Place North Entrance (East Side),0,
40.083945,,-88.2962055,WDSRVLGGRN,,,,Windsor and Village Green,1,
40.142017,,-88.183968,ARPRTLNDSFRM:3,,ARPRTLNDSFRM,,Airport & Landis Farm (SW Corner),0,
40.111022,,-88.280655,RNDBRNRD:1,,RNDBRNRD,,Round Barn Road (South Side),0,
40.111109,,-88.280013,RNDBRNRD:2,,RNDBRNRD,,Round Barn Road (North Side),0,
40.1300372233,,-88.25319889,HRISBLOM,http://www.cumtd.com/maps-and-schedules/bus-stops/info/hrisblom,,,Harris and Bloomington,1,
40.133866,,-88.190792,LBRTYCLMBA:2,,LBRTYCLMBA,,Liberty & Columbia (SE Corner),0,
40.093183335,,-88.283460835,WNCHBKHVN,http://www.cumtd.com/maps-and-schedules/bus-stops/info/wnchbrhvn,,,Winchester and Brookhaven,1,
40.12959083,,-88.254878335,HGNPNR,http://www.cumtd.com/maps-and-schedules/bus-stops/info/hgnpnr,,,Hagen and Pioneer,1,
40.116375,,-88.250168,UNIELM:4,http://www.cumtd.com/maps-and-schedules/bus-stops/info/unielm,UNIELM,,University & Elm (NW Corner),0,
40.09809,,-88.2466804175,KBYSTE,http://www.cumtd.com/maps-and-schedules/bus-stops/info/kbyste,,,Kirby and State,1,
40.11624667,,-88.25017667,UNIELM:3,http://www.cumtd.com/maps-and-schedules/bus-stops/info/unielm,UNIELM,,University & Elm (SW Corner),0,
40.07421333,,-88.24988,BRWSWDFLD:3,http://www.cumtd.com/maps-and-schedules/bus-stops/info/brwswdfld,BRWSWDFLD,,Burwash & Woodfield (SW Corner),0,
40.10248667,,-88.19549333,FRLNCTGRV:1,http://www.cumtd.com/maps-and-schedules/bus-stops/info/frlnctgrv,FRLNCTGRV,,Fairlawn & Cottage Grove (NE Corner),0,
40.07425333,,-88.24957333,BRWSWDFLD:1,http://www.cumtd.com/maps-and-schedules/bus-stops/info/brwswdfld,BRWSWDFLD,,Burwash & Woodfield (NE Corner),0,
40.1164,,-88.19725667,UNIHKRY:1,http://www.cumtd.com/maps-and-schedules/bus-stops/info/unihkry,UNIHKRY,,University & Hickory (NE Corner),0,
40.10238833,,-88.19524,FRLNCTGRV:6,http://www.cumtd.com/maps-and-schedules/bus-stops/info/frlnctgrv,FRLNCTGRV,,Fairlawn & Cottage Grove (SE Far Side),0,
40.11628,,-88.19747833,UNIHKRY:3,http://www.cumtd.com/maps-and-schedules/bus-stops/info/unihkry,UNIHKRY,,University & Hickory (South Side),0,
40.07550833,,-88.25136333,LNHSTEGRN,http://www.cumtd.com/maps-and-schedules/bus-stops/info/lnhstegrn,,,Lyndhurst and Evergreen Circle,1,
40.098097,,-88.262784,KBYRDGRD:3,http://www.cumtd.com/maps-and-schedules/bus-stops/info/kbyrdgrd,KBYRDGRD,,Kirby & Ridge (SW Corner),0,
40.11299,,-88.28732,CB:2,http://www.cumtd.com/maps-and-schedules/bus-stops/info/cb,CB,,Country Brook (North Side),0,
40.10361083,,-88.281938335,JMS,http://www.cumtd.com/maps-and-schedules/bus-stops/info/jms,,,Jefferson Middle School,1,
40.12007333,,-88.23491833,WASHPHLPS:1,http://www.cumtd.com/maps-and-schedules/bus-stops/info/washphlps,WASHPHLPS,,Washington & Phillips (NE),0,
40.0983395825,,-88.2001225,FLADRSN,http://www.cumtd.com/maps-and-schedules/bus-stops/info/fladrsn,,,Florida and Anderson,1,
40.11243,,-88.214612,SPFLDPRC:2,http://www.cumtd.com/maps-and-schedules/bus-stops/info/spfldprc,SPFLDPRC,,Springfield at Phillips Rec. Ctr (North),0,
40.12768,,-88.162965,PKNSHICRS:3,http://www.cumtd.com/maps-and-schedules/bus-stops/info/pknshicrs,PKNSHICRS,,Perkins & High Cross (SW Corner),0,
40.093543,,-88.301547,CVTRYMYNRD:4,http://www.cumtd.com/maps-and-schedules/bus-stops/info/cvtrymynrd,CVTRYMYNRD,,Coventry & Maynard (NW Corner),0,
40.112269,,-88.214079,SPFLDPRC:1,http://www.cumtd.com/maps-and-schedules/bus-stops/info/spfldprc,SPFLDPRC,,Springfield at Phillips Rec. Ctr (South),0,
40.093424,,-88.301544,CVTRYMYNRD:2,http://www.cumtd.com/maps-and-schedules/bus-stops/info/cvtrymynrd,CVTRYMYNRD,,Coventry & Maynard (SE Corner),0,
40.09488333,,-88.23319333,4THSMR:5,http://www.cumtd.com/maps-and-schedules/bus-stops/info/4thsmr,4THSMR,,Fourth & St. Mary's (NE Far Side),0,
40.127785,,-88.16286833,PKNSHICRS:4,http://www.cumtd.com/maps-and-schedules/bus-stops/info/pknshicrs,PKNSHICRS,,Perkins & High Cross (NW Corner),0,
40.105959,,-88.292631,WLMOKCRST:3,http://www.cumtd.com/maps-and-schedules/bus-stops/info/wlmokcrst,WLMOKCRST,,William & Oakcrest (SW Corner),0,
40.106036,,-88.292433,WLMOKCRST:1,http://www.cumtd.com/maps-and-schedules/bus-stops/info/wlmokcrst,WLMOKCRST,,William & Oakcrest (NE Corner),0,
40.0925805,,-88.316644165,BRTTRLSTHFRD,http://www.cumtd.com/maps-and-schedules/bus-stops/info/brttrlsthfrd,,,Brittany Trail and Southford,1,
40.1139633333,,-88.243435,NEILMSHL:2,http://www.cumtd.com/maps-and-schedules/bus-stops/info/neilmshl,NEILMSHL,,Neil & Marshall (SE Corner),0,
40.091463335,,-88.281571665,WNCHSMR,http://www.cumtd.com/maps-and-schedules/bus-stops/info/wnchsmr,,,Winchester and Southmoor,1,
40.098371665,,-88.287985,KBYSCTDL,http://www.cumtd.com/maps-and-schedules/bus-stops/info/kbysctdl,,,Kirby and Scottsdale,1,
40.12481667,,-88.24347333,NEILERKA:2,http://www.cumtd.com/maps-and-schedules/bus-stops/info/neilerka,NEILERKA,,Neil & Eureka (SE Corner),0,
40.1090199414,,-88.2467818238,STEJOHN,http://www.cumtd.com/maps-and-schedules/bus-stops/info/stejohn,,,State and John,1,
40.07698833,,-88.2506,LNHSTARBR:4,http://www.cumtd.com/maps-and-schedules/bus-stops/info/lnhstarbr,LNHSTARBR,,Lyndhurst & Arbours Drive (NW Corner),0,
40.12258148,,-88.2910842896,CLTNCPT:1,http://www.cumtd.com/maps-and-schedules/bus-stops/info/cltncpt,CLTNCPT,,Clayton & Compton (NE Corner),0,
40.152738,,-88.253665,NWTNLGGT,http://www.cumtd.com/maps-and-schedules/bus-stops/info/nwtnlggt,,,Newton and Leggett,1,
40.085584165,,-88.281525835,WNCHSMC,http://www.cumtd.com/maps-and-schedules/bus-stops/info/wnchsmc,,,Winchester and Sumac,1,
40.1343685,,-88.19322,ANTHYDUSK,,,,Anthony and Dusk,1,
40.1181672233,,-88.24666889,CHCHSTE,http://www.cumtd.com/maps-and-schedules/bus-stops/info/chchste,,,Church and State,1,
40.1123361133,,-88.2118094433,SPFLDBRCH,http://www.cumtd.com/maps-and-schedules/bus-stops/info/spfldbrch,,,Springfield and Birch,1,
40.12536583,,-88.257955,PSPCTERKA,http://www.cumtd.com/maps-and-schedules/bus-stops/info/pspcterka,,,Prospect and Eureka,1,
40.098434165,,-88.292249165,KBYSRTFRD,http://www.cumtd.com/maps-and-schedules/bus-stops/info/kbysrtfrd,,,Kirby and Stratford,1,
40.083726,,-88.266911,WDSRSTLW:1,http://www.cumtd.com/maps-and-schedules/bus-stops/info/wdsrstlw,WDSRSTLW,,Windsor & Stillwater (NE Corner),0,
40.083577,,-88.26722,WDSRSTLW:3,http://www.cumtd.com/maps-and-schedules/bus-stops/info/wdsrstlw,WDSRSTLW,,Windsor & Stillwater (SW Corner),0,
40.1127,,-88.282768,SPFLDCFD:2,http://www.cumtd.com/maps-and-schedules/bus-stops/info/spfldcfd,SPFLDCFD,,Springfield & Country Fair Dr. (SE),0,
40.110552835,,-88.220907665,GRNGRGST,http://www.cumtd.com/maps-and-schedules/bus-stops/info/grngrgst,,,Green and Gregory St.,1,
40.0846417767,,-88.29515989,DNCNCRSNG,http://www.cumtd.com/maps-and-schedules/bus-stops/info/dncncrsng,,,Duncan and Crossing Ct.,1,
40.112818,,-88.283102,SPFLDCFD:3,http://www.cumtd.com/maps-and-schedules/bus-stops/info/spfldcfd,SPFLDCFD,,Springfield & Country Fair Dr. (SW),0,
40.0773353577,,-88.2682914734,SSXOKMNT,http://www.cumtd.com/maps-and-schedules/bus-stops/info/ssxokmnt,,,Sussex and Oakmont,1,
40.0983125567,,-88.29510811,KBYDNCN,http://www.cumtd.com/maps-and-schedules/bus-stops/info/kbydncn,,,Kirby and Duncan,1,
40.138856,,-88.260805,MKTVSAMS:4,http://www.cumtd.com/maps-and-schedules/bus-stops/info/mktvsams,MKTVSAMS,,Marketview at Sams (NW Corner),0,
40.1026884722,,-88.3091372361,CBLFLDGLNBRK,http://www.cumtd.com/maps-and-schedules/bus-stops/info/cblfldglnbrk,,,Cobblefield and Glenn Brooke,1,
40.123725,,-88.2076775,BDWYOKLN,http://www.cumtd.com/maps-and-schedules/bus-stops/info/bdwyokln,,,Broadway and Oakland,1,
40.148712,,-88.258125,PSPCTINTER:7,http://www.cumtd.com/maps-and-schedules/bus-stops/info/pspctinter,PSPCTINTER,,Prospect & Interstate (SW Far Side),0,
40.126468,,-88.244528,CMS:2,,CMS,,Columbia Middle School (North Side),0,
40.141001,,-88.170376,BRNFLDDNLD:4,,BRNFLDDNLD,,Brownfield & Donald (NW Corner),0,
40.09815667,,-88.214265,FLOD:2,http://www.cumtd.com/maps-and-schedules/bus-stops/info/flod,FLOD,,Florida & Orchard (SE Corner),0,
40.0806312561,,-88.2520141602,PKLNBDFD:3,http://www.cumtd.com/maps-and-schedules/bus-stops/info/pklnbdfd,PKLNBDFD,,Park Lane & Bedford (SW Corner),0,
40.090775,,-88.19067,PHILOMFRD:4,http://www.cumtd.com/maps-and-schedules/bus-stops/info/philomfrd,PHILOMFRD,,Philo & Mumford (NW Corner),0,
40.12378333,,-88.25799333,PSPCTHVD:4,http://www.cumtd.com/maps-and-schedules/bus-stops/info/pspcthvd,PSPCTHVD,,Prospect & Harvard (NW Corner),0,
40.12386667,,-88.25787167,PSPCTHVD:2,http://www.cumtd.com/maps-and-schedules/bus-stops/info/pspcthvd,PSPCTHVD,,Prospect & Harvard (SE Corner),0,
40.1183513333,,-88.2144306667,CHCHORCD,http://www.cumtd.com/maps-and-schedules/bus-stops/info/chchorcd,,,Church and Orchard,1,
40.12397,,-88.257796,PSPCTHVD:1,http://www.cumtd.com/maps-and-schedules/bus-stops/info/pspcthvd,PSPCTHVD,,Prospect & Harvard (NE Corner),0,
40.07345167,,-88.20886167,RACESWND:6,http://www.cumtd.com/maps-and-schedules/bus-stops/info/raceswnd,RACESWND,,Race & Sherwin (SE Far Side),0,
40.07352833,,-88.20917333,RACESWND:2,http://www.cumtd.com/maps-and-schedules/bus-stops/info/raceswnd,RACESWND,,Race & Sherwin (SE Corner),0,
40.0779666901,,-88.2660484314,SSXSFLD,http://www.cumtd.com/maps-and-schedules/bus-stops/info/ssxfld,,,Sussex and Southfield,1,
40.0895375,,-88.25415833,DCC,http://www.cumtd.com/maps-and-schedules/bus-stops/info/dcc,,,Devonshire Center,1,
40.08525,,-88.23825,ASHTON:1,http://www.cumtd.com/maps-and-schedules/bus-stops/info/ashton,ASHTON,,Ashton Woods (West Side),0,
40.12980417,,-88.27799167,IETC,http://www.cumtd.com/maps-and-schedules/bus-stops/info/ietc,,,Illinois Employment Training Center,1,
40.0908475567,,-88.2112204433,ODSS,http://www.cumtd.com/maps-and-schedules/bus-stops/info/odss,,,Orchard Downs South Shelter,1,
40.09491167,,-88.25721833,BLBOAPSPCT:6,http://www.cumtd.com/maps-and-schedules/bus-stops/info/blboapspct,BLBOAPSPCT,,Balboa & Prospect (SE Far Side),0,
40.087311,,-88.238836,UICU:8,http://www.cumtd.com/maps-and-schedules/bus-stops/info/uicu,UICU,,U of I Credit Union (NW Far Side),0,
40.09497667,,-88.25746167,BLBOAPSPCT:1,http://www.cumtd.com/maps-and-schedules/bus-stops/info/blboapspct,BLBOAPSPCT,,Balboa & Prospect (NE Corner),0,
40.1273572233,,-88.19474667,PKNSCROL,http://www.cumtd.com/maps-and-schedules/bus-stops/info/pknscrol,,,Perkins and Carroll,1,
40.1326825,,-88.259150835,BLOMHILND,http://www.cumtd.com/maps-and-schedules/bus-stops/info/blomhilnd,,,Bloomington and Highland,1,
40.12894333,,-88.25066833,BLOMAL,http://www.cumtd.com/maps-and-schedules/bus-stops/info/blomal,,,Bloomington and Alabama,1,
40.152766,,-88.253759,NWTNLGGT:3,http://www.cumtd.com/maps-and-schedules/bus-stops/info/nwtnlggt,NWTNLGGT,,Newton & Leggett (SW Corner),0,
40.15271,,-88.253571,NWTNLGGT:2,http://www.cumtd.com/maps-and-schedules/bus-stops/info/nwtnlggt,NWTNLGGT,,Newton & Leggett (SE Corner),0,
40.13288167,,-88.26805333,PLALRKSPR:3,http://www.cumtd.com/maps-and-schedules/bus-stops/info/plalrkspr,PLALRKSPR,,Paula & Larkspur (South Side),0,
40.083581665,,-88.2548225,WDSRMLRS,http://www.cumtd.com/maps-and-schedules/bus-stops/info/wdsrmlrs,,,Windsor and Melrose,1,
40.100723335,,-88.207164165,PABDWY,http://www.cumtd.com/maps-and-schedules/bus-stops/info/pabdwy,,,Pennsylvania and Broadway,1,
40.150438,,-88.2750215,RSRCHHZNHBY,http://www.cumtd.com/maps-and-schedules/bus-stops/info/rsrchhbco,,,Research at Horizon Hobby,1,
40.1027781117,,-88.2415562767,STDMOAK,http://www.cumtd.com/maps-and-schedules/bus-stops/info/stdmoak,,,Stadium and Oak,1,
40.09263,,-88.22042167,VETMED:1,http://www.cumtd.com/maps-and-schedules/bus-stops/info/vetmed,VETMED,,Vet-Med (Basic Science Building),0,
40.1090684467,,-88.2558322233,JOHNPINE,http://www.cumtd.com/maps-and-schedules/bus-stops/info/johnpine,,,John and Pine,1,
40.10757,,-88.1715325,MCRTRCA,http://www.cumtd.com/maps-and-schedules/bus-stops/info/mcrtrca,,,MacArthur and California,1,
40.0871433333,,-88.23822111,1STGTY,http://www.cumtd.com/maps-and-schedules/bus-stops/info/1stgty,,,First and Gerty,1,
40.0836099975,,-88.2093741675,RACEWDSR,http://www.cumtd.com/maps-and-schedules/bus-stops/info/racewdsr,,,Race and Windsor,1,
40.127205,,-88.219434,LNCLNBRAD:2,http://www.cumtd.com/maps-and-schedules/bus-stops/info/lnclnbrad,LNCLNBRAD,,Lincoln & Bradley (SE Corner),0,
40.0811805556,,-88.1834944444,SSTNGLNA:2,http://www.cumtd.com/maps-and-schedules/bus-stops/info/sstnglna,SSTNGLNA,,Susan Stone & Galena (SE Corner),0,
40.12185167,,-88.29727833,CLTNDLMR:3,http://www.cumtd.com/maps-and-schedules/bus-stops/info/cltndlmr,CLTNDLMR,,Clayton & Delmar (SW Corner),0,
40.092968,,-88.238352,1STIHOTEL:1,,1STIHOTEL,,First at iHotel,0,
40.093201,,-88.238256,1STIHOTEL:2,,1STIHOTEL,,First at iHotel,0,
40.085144,,-88.314109,STLYCPRRDG,,,,Staley and Copper Ridge,1,
40.112755375,,-88.2468540039,STESPFLD,http://www.cumtd.com/maps-and-schedules/bus-stops/info/stespfld,,,State and Springfield,1,
40.07693048,,-88.185215963,MYRATRLS,http://www.cumtd.com/maps-and-schedules/bus-stops/info/myratrls,,,Myra Ridge and Trails,1,
40.1067621854,,-88.2334201579,4THCHAL,http://www.cumtd.com/maps-and-schedules/bus-stops/info/4thchal,,,Fourth and Chalmers,1,
40.07689833,,-88.28966833,WDGWDTMGT:2,http://www.cumtd.com/maps-and-schedules/bus-stops/info/wdgwdtmgt,WDGWDTMGT,,Wedgewood & Timbergate (SE Corner),0,
40.0769972222,,-88.2897916667,WDGWDTMGT:3,http://www.cumtd.com/maps-and-schedules/bus-stops/info/wdgwdtmgt,WDGWDTMGT,,Wedgewood & Timbergate (SW Corner),0,
40.09979333,,-88.24662,STEBRCH:2,http://www.cumtd.com/maps-and-schedules/bus-stops/info/stebrch,STEBRCH,,State & Birch (SE Corner),0,
40.09998167,,-88.24673833,STEBRCH:4,http://www.cumtd.com/maps-and-schedules/bus-stops/info/stebrch,STEBRCH,,State & Birch (NW Corner),0,
40.112635,,-88.26026,SPFLDWLS:3,http://www.cumtd.com/maps-and-schedules/bus-stops/info/spfldwls,SPFLDWLS,,Springfield & Willis (SW Corner),0,
40.114265,,-88.24509,RNDLFWHT:2,http://www.cumtd.com/maps-and-schedules/bus-stops/info/rndlfwht,RNDLFWHT,,Randolph & White (SE Corner),0,
40.113433,,-88.311049,SPFLDFLDSTN:4,,SPFLDFLDSTN,,Springfield & Fieldstone (NW Corner),0,
40.1019055,,-88.2049695,VINEMI,,,,Vine and Michigan,1,
40.12750833,,-88.29157333,BRAD:1,http://www.cumtd.com/maps-and-schedules/bus-stops/info/brad,BRAD,,Bradley (South Side),0,
40.0839538574,,-88.3079223633,WNDSRFLDS:2,http://www.cumtd.com/maps-and-schedules/bus-stops/info/wndsrflds,WNDSRFLDS,,Windsor & Fields South (SE Corner),0,
40.0840263367,,-88.30820465,WNDSRFLDS:3,http://www.cumtd.com/maps-and-schedules/bus-stops/info/wndsrflds,WNDSRFLDS,,Windsor & Fields South (SW Corner),0,
40.097716,,-88.32091,MLKNTRSTSHR:1,http://www.cumtd.com/maps-and-schedules/bus-stops/info/mlkntrstshr,MLKNTRSTSHR,,Mullikin & Trostshire (North Side),0,
40.093372335,,-88.311287835,BNTBRKGLFCRK,http://www.cumtd.com/maps-and-schedules/bus-stops/info/bntbrkglfcrk,,,Bentbrook and Golf Creek,1,
40.079323335,,-88.291445835,LKVWWTGTN,http://www.cumtd.com/maps-and-schedules/bus-stops/info/lkvwwtgtn,,,Lakeview and Worthington,1,
40.1462666667,,-88.2484666667,NEILTWN,http://www.cumtd.com/maps-and-schedules/bus-stops/info/neiltwn,,,Neil and Twins,1,
40.083843335,,-88.287775835,WDSRSCTDL,http://www.cumtd.com/maps-and-schedules/bus-stops/info/wdsrsctdl,,,Windsor and Scottsdale,1,
40.100690415,,-88.2095916675,PARACE,http://www.cumtd.com/maps-and-schedules/bus-stops/info/parace,,,Pennsylvania and Race,1,
40.09815833,,-88.27105167,CMIHS:1,http://www.cumtd.com/maps-and-schedules/bus-stops/info/cmihs,CMIHS,,Champaign House (South Side),0,
40.116366002,,-88.219344334,UNILNCLN,http://www.cumtd.com/maps-and-schedules/bus-stops/info/unilncln,,,University and Lincoln,1,
40.13725833,,-88.277305,MATSUSPS,http://www.cumtd.com/maps-and-schedules/bus-stops/info/matsusps,,,Mattis at Post Office,1,
40.112855,,-88.28765,CB:1,http://www.cumtd.com/maps-and-schedules/bus-stops/info/cb,CB,,Country Brook (South Side),0,
40.11619139,,-88.2075680567,BDWYUNI,http://www.cumtd.com/maps-and-schedules/bus-stops/info/bdwyuni,,,Broadway and University,1,
40.128203165,,-88.219541,ONENORTH,http://www.cumtd.com/maps-and-schedules/bus-stops/info/onenorth,,,ONE Illinois North,1,
40.13173167,,-88.29896667,BNBLRSHRN:1,http://www.cumtd.com/maps-and-schedules/bus-stops/info/bnblrshrn,BNBLRSHRN,,Bonnie Blair & Sharon (NE Corner),0,
40.13338167,,-88.18676833,HMTNJFSN:3,http://www.cumtd.com/maps-and-schedules/bus-stops/info/hmtnjfsn,HMTNJFSN,,Hamilton & Jefferson (SW Corner),0,
40.1392718072,,-88.2731865253,ANTWTRS,http://www.cumtd.com/maps-and-schedules/bus-stops/info/antwtrs,,,Anthony and Walters,1,
40.102072,,-88.205013,VINEMI:4,,VINEMI,,Vine & Michigan (NW Corner),0,
40.10566,,-88.178305,WASHTIM:3,http://www.cumtd.com/maps-and-schedules/bus-stops/info/washtim,WASHTIM,,Washington & Timothy Tr. (SW Corner),0,
40.10578833,,-88.178015,WASHTIM:1,http://www.cumtd.com/maps-and-schedules/bus-stops/info/washtim,WASHTIM,,Washington & Timothy Tr. (North Side),0,
40.12209333,,-88.2453775,RNDLFVIN,http://www.cumtd.com/maps-and-schedules/bus-stops/info/rndlfvin,,,Randolph and Vine,1,
40.10899311,,-88.2954412233,JOHNDNCN,http://www.cumtd.com/maps-and-schedules/bus-stops/info/johndncn,,,John and Duncan,1,
40.121967,,-88.2053035,KERDVSION,,,,Kerr and Division,1,
40.10377667,,-88.20257833,FRLN:2,http://www.cumtd.com/maps-and-schedules/bus-stops/info/frln,FRLN,,Fairlawn (North Side),0,
40.10901,,-88.264775,JOHNJAS:1,http://www.cumtd.com/maps-and-schedules/bus-stops/info/johnjas,JOHNJAS,,John & James (NE Corner),0,
40.128741,,-88.308364,BLGRSBCAVSTA:2,,BLGRSBCAVSTA,,Bluegrass & Boca Vista (SE Corner),0,
40.1202725,,-88.232205835,5THWASH,http://www.cumtd.com/maps-and-schedules/bus-stops/info/5thwash,,,Fifth and Washington,1,
40.10063667,,-88.21451,PAORCH:3,http://www.cumtd.com/maps-and-schedules/bus-stops/info/paorch,PAORCH,,Penn & Orchard (SW Corner),0,
40.114785,,-88.2817395,CFDCPA,,,,Country Fair Drive CPA,1,
40.091285,,-88.302075,LSDMYNRD:1,http://www.cumtd.com/maps-and-schedules/bus-stops/info/lsdmynrd,LSDMYNRD,,Lakeshore & Maynard (NE Corner),0,
40.0944884281,,-88.1947704688,CTGRVCO,http://www.cumtd.com/maps-and-schedules/bus-stops/info/ctgrvco,,,Cottage Grove and Colorado,1,
40.111648,,-88.20803,LSE:8,http://www.cumtd.com/maps-and-schedules/bus-stops/info/lse,LSE,,Lincoln Square Garage South,0,
40.09140167,,-88.30231333,LSDMYNRD:4,http://www.cumtd.com/maps-and-schedules/bus-stops/info/lsdmynrd,LSDMYNRD,,Lakeshore & Maynard (NW Corner),0,
40.111934,,-88.207296,LSE:2,http://www.cumtd.com/maps-and-schedules/bus-stops/info/lse,LSE,,Lincoln Square Courthouse,0,
40.111898,,-88.207479,LSE:1,http://www.cumtd.com/maps-and-schedules/bus-stops/info/lse,LSE,,Lincoln Square Garage East,0,
40.11631167,,-88.26742,UNIRSL,http://www.cumtd.com/maps-and-schedules/bus-stops/info/unirsl,,,University and Russell,1,
40.127274165,,-88.265293335,BRADJAS,http://www.cumtd.com/maps-and-schedules/bus-stops/info/bradjas,,,Bradley and James,1,
40.10170667,,-88.200165,ADRSNMI,http://www.cumtd.com/maps-and-schedules/bus-stops/info/adrsnmi,,,Anderson and Michigan,1,
40.093443,,-88.311319,BNTBRKGLFCRK:4,http://www.cumtd.com/maps-and-schedules/bus-stops/info/bntbrkglfcrk,BNTBRKGLFCRK,,Bentbrook & Golf Creek (NW Corner),0,
40.09330167,,-88.31125667,BNTBRKGLFCRK:2,http://www.cumtd.com/maps-and-schedules/bus-stops/info/bntbrkglfcrk,BNTBRKGLFCRK,,Bentbrook & Golf Creek (East Side),0,
40.101983,,-88.294277,MPLPKSANG:2,http://www.cumtd.com/maps-and-schedules/bus-stops/info/mplpksang,MPLPKSANG,,Maplepark & Sangamon (SE Corner),0,
40.09839167,,-88.28158,KBYCRSNT:1,http://www.cumtd.com/maps-and-schedules/bus-stops/info/kbycrsnt,KBYCRSNT,,Kirby & Crescent (NE Corner),0,
40.09814333,,-88.28173,KBYCRSNT:2,http://www.cumtd.com/maps-and-schedules/bus-stops/info/kbycrsnt,KBYCRSNT,,Kirby & Crescent (SE Corner),0,
40.09825,,-88.28191,KBYCRSNT:3,http://www.cumtd.com/maps-and-schedules/bus-stops/info/kbycrsnt,KBYCRSNT,,Kirby & Crescent (SW Corner),0,
40.09845833,,-88.28181167,KBYCRSNT:4,http://www.cumtd.com/maps-and-schedules/bus-stops/info/kbycrsnt,KBYCRSNT,,Kirby & Crescent (NW Corner),0,
40.09861333,,-88.281715,KBYCRSNT:5,http://www.cumtd.com/maps-and-schedules/bus-stops/info/kbycrsnt,KBYCRSNT,,Kirby & Crescent (NE Far Side),0,
40.0878391675,,-88.19077375,MHRYPHILO,http://www.cumtd.com/maps-and-schedules/bus-stops/info/mhryphilo,,,McHenry and Philo,1,
40.085254165,,-88.201870835,VINSCVL,http://www.cumtd.com/maps-and-schedules/bus-stops/info/vinscvl,,,Vine and Scovill,1,
40.10905667,,-88.29787667,JOHNDGWD:3,http://www.cumtd.com/maps-and-schedules/bus-stops/info/johndgwd,JOHNDGWD,,John & Dogwood (SW Corner),0,
40.0985610825,,-88.314406,STLYKBY,http://www.cumtd.com/maps-and-schedules/bus-stops/info/stlykby,,,Staley and Kirby,1,
